"","code_attraction_centre","code_commune_geo","name_commune_src_attr","name_attraction_centre","category_attraction_centre","code_region","name_region","code_department","code_commune_geo.y","name_commune","population_commune","latitude","longitude","siren","nic","siret","date_creation","year_workforce_record_update","date_latest_update","headquarter","date_creation_legal_unit","category","legal_shop_name","acronym_shop","popular_name_1","popular_name_2","popular_name_3","owner_gender","owner_lastname","owner_lastname_chosen","owner_firstname_1","owner_firstname_2","owner_firstname_3","owner_firstname_4","owner_firstname_used","owner_pseudonym","apen_code","rna_registration_code","social_category","workforce_category","year_workforce_survey","nic_centralized","date_sirene_last_update","category_business","year_category_survey","shop_address_complement_1","name_commune_src_etab","shop_address_complement_2","franchise_1","franchise_2","franchise_3","shop_name_public","shop_address_1","shop_address_2","population_attr_centre","franchise","carte_blanche","itelis","kalixia","sante_clair","seveane","promotion","audio_service","image date","website"
"1","633","39006","Aiglepierre","Salins-les-Bains",20,"27","Bourgogne-Franche-Comté","39","6","Aiglepierre",452,46.9553944509,5.80953794446,424100899,22,4.24101e+13,1999-08-02,NA,2008-01-05 00:50:54,FALSE,1999-08-01,3220,"ATEN INC",NA,NA,NA,NA,NA,NA,NA,NA,NA,NA,NA,NA,NA,"47.78A",NA,NA,"NN",NA,14,2011-12-06 04:24:34,"PME",2019,"MME MOUGET MARYSE","AIGLEPIERRE",NA,NA,NA,NA,NA,"18 RUE DE L EGLISE 39110",NA,5003,NA,NA,NA,NA,NA,NA,NA,NA,NA,NA
"2","645","73006","Aime-la-Plagne","Aime-la-Plagne",11,"84","Auvergne-Rhône-Alpes","73","6","Aime-la-Plagne",4554,45.5525768932,6.61836974596,491437745,12,4.91438e+13,2006-08-09,2019,2021-10-27 08:29:29,TRUE,2006-08-09,5499,"AIME OPTIQUE",NA,"AIME OPTIQUE",NA,NA,NA,NA,NA,NA,NA,NA,NA,NA,NA,"47.78A",NA,"N","2",2019,12,2021-10-27 08:29:29,"PME",2019,NA,"AIME-LA-PLAGNE",NA,"AIME OPTIQUE",NA,NA,NA,"262  GRANDE RUE 73210",NA,4554,NA,0,0,0,0,0,NA,0,"43344","https://aime-optique.fr/"
"3","648","76400","Luneray","Luneray",11,"28","Normandie","76","400","Luneray",2248,49.8227333447,0.917982419678,306881731,62,3.06882e+13,1996-04-01,2019,2021-10-27 08:16:06,FALSE,1966-01-01,5499,"""S.E.D.O.M.A.""","SEDOMA",NA,NA,NA,NA,NA,NA,NA,NA,NA,NA,NA,NA,"47.74Z",NA,"N","2",2019,138,2021-10-27 08:16:06,"PME",2019,NA,"LUNERAY",NA,"LUNOPTIQUE",NA,NA,NA,"PL RENE COTY 76810",NA,4472,"vision plus",NA,NA,NA,NA,NA,NA,NA,"44652","https://www.lecollectifdeslunetiers.fr/opticien/france/seine-maritime/opticien-luneray/luneray-placecoty"
"4","586","60104","Breteuil","Breteuil",11,"32","Hauts-de-France","60","104","Breteuil",4454,49.6340425257,2.29183403499,312326184,40,3.12326e+13,2014-01-01,2019,2021-10-27 08:18:02,TRUE,1978-01-01,5499,"BRET'OEIL OPTIC",NA,NA,NA,NA,NA,NA,NA,NA,NA,NA,NA,NA,NA,"47.78A",NA,"N","1",2019,40,2021-10-27 08:18:02,"PME",2019,NA,"BRETEUIL",NA,NA,NA,NA,NA,"17 RUE DE LA REPUBLIQUE 60120",NA,6290,NA,0,0,0,0,0,NA,0,"43647","https://optique-dutertre.fr/"
"5","566","66003","Amélie-les-Bains-Palalda","Amélie-les-Bains-Palalda",11,"76","Occitanie","66","3","Amélie-les-Bains-Palalda",3492,42.4436859079,2.68338432052,451492383,26,4.51492e+13,2015-01-01,2019,2021-10-27 08:07:25,TRUE,2004-01-08,5499,"A  VISION","KD",NA,NA,NA,NA,NA,NA,NA,NA,NA,NA,NA,NA,"47.78A",NA,"N","1",2019,26,2021-10-27 08:07:25,"PME",2019,NA,"AMELIE-LES-BAINS-PALALDA",NA,"VISION EXPERT",NA,NA,"VISION EXPERT 66","21 AV DU VALLESPIR 66110",NA,6897,NA,1,0,0,0,0,NA,0,"44682","https://vision-expert-66.com/"
"6","644","10034","Bar-sur-Seine","Bar-sur-Seine",11,"44","Grand Est","10","34","Bar-sur-Seine",3202,48.1127221863,4.37880982139,315536698,22,3.15537e+13,2004-04-01,2019,2021-10-27 08:19:23,TRUE,1979-01-01,1000,NA,NA,NA,NA,NA,"M","GUICHON",NA,"ROGER","PAUL",NA,NA,"ROGER",NA,"47.78A",NA,NA,"1",2019,22,2021-10-27 08:19:23,"PME",2019,NA,"BAR-SUR-SEINE",NA,NA,NA,NA,NA,"CHE DU VAL MORE 10110",NA,4757,NA,NA,NA,NA,NA,NA,NA,NA,NA,NA
"7","565","69006","Amplepuis","Amplepuis",11,"84","Auvergne-Rhône-Alpes","69","6","Amplepuis",5097,45.9651984924,4.32676291669,451734487,23,4.51734e+13,2007-10-01,2019,2021-10-27 08:07:49,FALSE,2004-01-13,5499,"OPTIQUE RABOURDIN",NA,NA,NA,NA,NA,NA,NA,NA,NA,NA,NA,NA,NA,"47.78A",NA,NA,"11",2019,15,2021-10-27 08:07:49,"PME",2019,NA,"AMPLEPUIS",NA,"LES OPTICIENS RABOURDIN",NA,NA,NA,"13 RUE DE L HOTEL DE VILLE 69550",NA,6998,NA,0,1,0,1,0,NA,0,"42461","https://www.opticiensrabourdin.fr/"
"8","565","69006","Amplepuis","Amplepuis",11,"84","Auvergne-Rhône-Alpes","69","6","Amplepuis",5097,45.9651984924,4.32676291669,501418032,14,5.01418e+13,2008-01-02,2019,2021-10-27 08:03:13,TRUE,2008-01-02,5499,"I.D. OPTIQUE",NA,"I & D OPTICIENS",NA,NA,NA,NA,NA,NA,NA,NA,NA,NA,NA,"47.78A",NA,NA,"1",2019,14,2021-10-27 08:03:13,"PME",2019,NA,"AMPLEPUIS",NA,NA,NA,NA,NA,"10 PL GENERAL DE GAULLE 69550",NA,6998,NA,0,0,0,0,0,NA,1,"42339","https://www.id-opticiens.fr/"
"9","565","69006","Amplepuis","Amplepuis",11,"84","Auvergne-Rhône-Alpes","69","6","Amplepuis",5097,45.9651984924,4.32676291669,528827215,21,5.28827e+13,2011-01-01,2019,2021-10-27 08:35:31,FALSE,2010-11-08,5499,"ALEXANDRE OPTIQUE",NA,NA,NA,NA,NA,NA,NA,NA,NA,NA,NA,NA,NA,"47.78A",NA,NA,"1",2019,13,2021-10-27 08:35:31,"PME",2019,NA,"AMPLEPUIS",NA,"OPTIC 2000",NA,NA,NA,"21 RUE DE L HOTEL DE VILLE 69550",NA,6998,NA,0,0,0,0,0,NA,0,"42979","http://alexandreoptique.expertsantevisuelle.com/"
"10","579","39013","Arbois","Arbois",11,"27","Bourgogne-Franche-Comté","39","13","Arbois",3544,46.8941749828,5.77318253275,352189989,36,3.5219e+13,2005-03-01,2019,2022-03-15 04:23:45,TRUE,1989-09-30,5710,"OPTIC CONTACT",NA,NA,NA,NA,NA,NA,NA,NA,NA,NA,NA,NA,NA,"47.78A",NA,NA,"1",2019,36,2022-03-15 04:23:45,"PME",2019,NA,"ARBOIS",NA,NA,NA,NA,NA,"47 GR RUE 39600",NA,6680,NA,0,0,0,0,0,NA,0,"44440",NA
"11","579","39013","Arbois","Arbois",11,"27","Bourgogne-Franche-Comté","39","13","Arbois",3544,46.8941749828,5.77318253275,775597487,427,7.75597e+13,2014-09-22,2019,2021-10-27 08:54:00,FALSE,1900-01-01,8210,"MUTUALITE FRANCAISE JURA",NA,NA,NA,NA,NA,NA,NA,NA,NA,NA,NA,NA,NA,"65.12Z",NA,"O","32",2019,62,2022-02-16 09:48:57,"PME",2019,NA,"ARBOIS",NA,NA,NA,NA,"LES OPTICIENS MUTUALISTES","67  GRANDE RUE 39600",NA,6680,"ecouter voir",0,0,0,0,NA,NA,1,"43831","https://www.ecoutervoir.fr/trouver-un-magasin/arbois/"
"12","488","16106","Confolens","Confolens",11,"75","Nouvelle-Aquitaine","16","106","Confolens",2825,46.0191386034,0.658522279035,326677747,23,3.26678e+13,1988-07-26,2019,2021-10-27 08:25:24,TRUE,1983-02-01,5499,"EURO OPTIQUE",NA,NA,NA,NA,NA,NA,NA,NA,NA,NA,NA,NA,NA,"47.78A",NA,NA,"1",2019,23,2021-10-27 08:25:24,"PME",2019,NA,"CONFOLENS",NA,NA,NA,NA,NA,"2 PL HENRI COURSAGET 16500",NA,9586,NA,0,0,0,0,0,NA,1,"43983","https://www.eurooptique.com/"
"13","533","50410","Pontorson","Pontorson",11,"28","Normandie","50","410","Pontorson",4420,48.5689721753,-1.48653363271,328060801,29,3.28061e+13,1994-03-29,NA,2008-12-06 04:40:40,FALSE,1983-08-12,5499,"SODE FRANCH",NA,NA,NA,NA,NA,NA,NA,NA,NA,NA,NA,NA,NA,"47.78A",NA,NA,"NN",NA,37,2017-05-20 03:03:26,"PME",2019,NA,"PONTORSON",NA,NA,NA,NA,NA,"63 RUE COUESNON 50170",NA,7821,NA,NA,NA,NA,NA,NA,NA,NA,NA,NA
"14","533","50410","Pontorson","Pontorson",11,"28","Normandie","50","410","Pontorson",4420,48.5689721753,-1.48653363271,328060801,37,3.28061e+13,1996-10-01,NA,2014-06-14 02:03:40,TRUE,1983-08-12,5499,"SODE FRANCH",NA,NA,NA,NA,NA,NA,NA,NA,NA,NA,NA,NA,NA,"47.78A",NA,NA,"NN",NA,37,2017-05-20 03:03:26,"PME",2019,NA,"PONTORSON",NA,NA,NA,NA,NA,"75 RUE COUESNON 50170",NA,7821,NA,0,0,0,0,0,NA,0,"44136","https://www.optiquederien.com/"
"15","537","67434","Sarre-Union","Sarre-Union",11,"44","Grand Est","67","434","Sarre-Union",2867,48.9451866571,7.08863161456,329476766,20,3.29477e+13,2001-01-03,2019,2021-10-27 08:27:18,TRUE,1984-05-01,5499,"CENTRE OPTIQUE MEDICALE WAGNER",NA,NA,NA,NA,NA,NA,NA,NA,NA,NA,NA,NA,NA,"47.78A",NA,NA,"2",2019,20,2021-10-27 08:27:18,"PME",2019,NA,"SARRE-UNION",NA,NA,NA,NA,NA,"8 RUE DU MARECHAL FOCH 67260",NA,7738,NA,0,0,0,0,0,NA,1,"44470","https://centre-optique-medicale-wagner.fr/"
"16","579","39013","Arbois","Arbois",11,"27","Bourgogne-Franche-Comté","39","13","Arbois",3544,46.8941749828,5.77318253275,790167423,17,7.90167e+13,2012-12-19,2019,2021-10-27 08:58:30,TRUE,2012-12-19,5499,"DEVILLERS",NA,NA,NA,NA,NA,NA,NA,NA,NA,NA,NA,NA,NA,"47.78A",NA,NA,"1",2019,17,2021-10-27 08:58:30,"PME",2019,NA,"ARBOIS",NA,"OPTIQUE DES VIGNES",NA,NA,NA,"73  GRANDE RUE 39600",NA,6680,NA,1,0,0,0,1,NA,1,"44440",NA
"17","579","39013","Arbois","Arbois",11,"27","Bourgogne-Franche-Comté","39","13","Arbois",3544,46.8941749828,5.77318253275,904350535,12,9.04351e+13,2021-09-29,NA,2021-10-21 08:47:10,TRUE,2021-09-29,5710,"LUNETTERIE MARION LIVET",NA,NA,NA,NA,NA,NA,NA,NA,NA,NA,NA,NA,NA,"47.78A",NA,"N",NA,NA,12,2021-10-21 08:47:10,NA,NA,NA,"ARBOIS",NA,NA,NA,NA,NA,"3 RUE DE LA FAIENCERIE 39600",NA,6680,NA,NA,NA,NA,NA,NA,NA,NA,NA,NA
"18","518","65025","Argelès-Gazost","Argelès-Gazost",11,"76","Occitanie","65","25","Argelès-Gazost",3070,43.006001672,-0.0963626224791,487911851,11,4.87912e+13,2006-02-03,NA,2019-11-14 14:00:52,TRUE,2006-02-03,5499,"LES LUNETIERS",NA,NA,NA,NA,NA,NA,NA,NA,NA,NA,NA,NA,NA,"47.78A",NA,NA,NA,NA,11,2017-12-05 02:53:39,"PME",2019,NA,"ARGELES-GAZOST",NA,"LES LUNETIERS",NA,NA,NA,"25 RUE MARECHAL FOCH 65400",NA,8603,NA,0,0,0,0,0,NA,0,"43070",NA
"19","518","65025","Argelès-Gazost","Argelès-Gazost",11,"76","Occitanie","65","25","Argelès-Gazost",3070,43.006001672,-0.0963626224791,510013378,11,5.10013e+13,2009-01-02,2019,2021-10-27 08:15:36,TRUE,2009-01-02,5499,"SARL DESPIN",NA,NA,NA,NA,NA,NA,NA,NA,NA,NA,NA,NA,NA,"47.78A",NA,NA,"1",2019,11,2021-10-27 08:15:36,"PME",2019,NA,"ARGELES-GAZOST",NA,"OPTIC 2000",NA,NA,NA,"21 PL DU FOIRAIL 65400",NA,8603,NA,1,1,1,0,1,NA,0,"44682","https://opticiens.optic2000.com/opticien-argeles-gazost-65400-2350"
"20","518","65025","Argelès-Gazost","Argelès-Gazost",11,"76","Occitanie","65","25","Argelès-Gazost",3070,43.006001672,-0.0963626224791,798663894,11,7.98664e+13,2013-11-22,2019,2021-10-27 09:05:33,TRUE,2013-11-22,5710,"LC OPTIQUE",NA,NA,NA,NA,NA,NA,NA,NA,NA,NA,NA,NA,NA,"47.78A",NA,NA,"0",2019,11,2021-10-27 09:05:33,"PME",2019,NA,"ARGELES-GAZOST",NA,"OPTIQUE GUINOISEAU",NA,NA,NA,"3 PL DE LA REPUBLIQUE 65400",NA,8603,NA,0,0,0,0,0,NA,0,"44228",NA
"21","539","36006","Argenton-sur-Creuse","Argenton-sur-Creuse",11,"24","Centre-Val de Loire","36","6","Argenton-sur-Creuse",5140,46.5787862593,1.4926283101,529322927,11,5.29323e+13,2010-12-31,2019,2021-10-27 08:36:12,TRUE,2010-12-31,5499,"MARLU",NA,NA,NA,NA,NA,NA,NA,NA,NA,NA,NA,NA,NA,"47.78A",NA,"N","2",2019,11,2021-10-27 08:36:13,"PME",2019,NA,"ARGENTON-SUR-CREUSE",NA,"OV",NA,NA,"OPTIQUE VIGNERON","14 RUE GRANDE 36200",NA,7760,NA,0,0,0,0,0,NA,0,"44562","https://www.optiquevigneron.fr/"
"22","539","36006","Argenton-sur-Creuse","Argenton-sur-Creuse",11,"24","Centre-Val de Loire","36","6","Argenton-sur-Creuse",5140,46.5787862593,1.4926283101,775347891,670,7.75348e+13,2009-07-01,2019,2021-10-27 08:53:50,FALSE,1971-04-01,8210,"VYV 3 CENTRE VAL DE LOIRE MUTUALITE FRANCAISE CENTRE VAL DE LOIRE SSAM",NA,NA,NA,NA,NA,NA,NA,NA,NA,NA,NA,NA,NA,"65.12Z",NA,"O","42",2019,1439,2022-03-15 13:27:14,"ETI",2019,NA,"ARGENTON-SUR-CREUSE",NA,"LES OPTICIENS MUTUALISTES",NA,NA,NA,"6 PL DE LA REPUBLIQUE 36200",NA,7760,"ecouter voir",1,0,0,0,0,NA,0,"44562","https://www.ecoutervoir.fr/"
"23","502","64493","Saint-Palais","Saint-Palais",11,"75","Nouvelle-Aquitaine","64","493","Saint-Palais",1906,43.3153764046,-1.0377471932,348864976,17,3.48865e+13,1988-10-01,2019,2021-10-27 08:39:05,TRUE,1988-10-01,5499,"OPTIQUE HOURCADE",NA,NA,NA,NA,NA,NA,NA,NA,NA,NA,NA,NA,NA,"47.78A",NA,NA,"1",2019,17,2021-10-27 08:39:05,"PME",2019,NA,"SAINT-PALAIS",NA,NA,NA,NA,NA,"5 RUE DU CENTRE 64120",NA,8846,NA,1,0,1,0,1,NA,0,"44317","http://optiquehourcade.expertsantevisuelle.com/"
"24","509","54039","Baccarat","Baccarat",11,"44","Grand Est","54","39","Baccarat",4392,48.4499656424,6.74057641633,411776875,55,4.11777e+13,2017-10-01,NA,2017-11-08 10:14:35,FALSE,1997-01-06,5499,"OPTIQUE LEMESLE",NA,"KRYS",NA,NA,NA,NA,NA,NA,NA,NA,NA,NA,NA,"47.78A",NA,NA,"3",2019,14,2021-10-27 08:35:14,"PME",2019,NA,"BACCARAT",NA,NA,NA,NA,NA,"21 RUE ADRIEN MICHAUT 54120",NA,8615,"vision plus",1,0,1,1,1,NA,1,"44409","https://www.lecollectifdeslunetiers.fr/opticien/france/meurthe-et-moselle/opticien-baccarat/baccarat-meurthe-et-moselle"
"25","587","66016","Banyuls-sur-Mer","Banyuls-sur-Mer",11,"76","Occitanie","66","16","Banyuls-sur-Mer",4838,42.4614750255,3.09989653778,442493409,35,4.42493e+13,2020-03-31,NA,2020-06-26 14:18:58,TRUE,2002-06-25,5499,"OPTI'CIL",NA,NA,NA,NA,NA,NA,NA,NA,NA,NA,NA,NA,NA,"47.78A",NA,"N","NN",NA,35,2020-07-09 11:16:26,"PME",2019,NA,"BANYULS-SUR-MER",NA,NA,NA,NA,NA,"7 AV DU PUIG DEL MAS 66650",NA,6210,NA,1,0,1,0,0,NA,0,"44531","https://www.monopticien.com/"
"26","637","40224","Peyrehorade","Peyrehorade",11,"75","Nouvelle-Aquitaine","40","224","Peyrehorade",3870,43.5583873014,-1.10698952951,350940623,35,3.50941e+13,2001-03-01,2019,2021-10-27 08:01:31,TRUE,1989-05-16,5499,"OPTIQUE GAMBETTA",NA,NA,NA,NA,NA,NA,NA,NA,NA,NA,NA,NA,NA,"47.78A",NA,"N","2",2019,35,2021-10-27 08:01:31,"PME",2019,NA,"PEYREHORADE",NA,NA,NA,NA,NA,"3 RUE LEMBARRY 40300",NA,4823,"optic 2000",1,0,1,0,1,NA,0,"44683","https://opticiens.optic2000.com/opticien-peyrehorade-40300-1264"
"27","533","50410","Pontorson","Pontorson",11,"28","Normandie","50","410","Pontorson",4420,48.5689721753,-1.48653363271,351033881,50,3.51034e+13,2014-03-04,2019,2021-10-27 08:01:36,FALSE,1989-06-01,5499,"OPTIQUE BARBOT",NA,NA,NA,NA,NA,NA,NA,NA,NA,NA,NA,NA,NA,"47.78A",NA,NA,"11",2019,19,2021-10-27 08:01:36,"PME",2019,NA,"PONTORSON",NA,"OPTIQUE 2000",NA,NA,NA,"31 RUE COUESNON 50170",NA,7821,"optic 2000",1,0,1,1,1,NA,1,"44682","https://opticiens.optic2000.com/opticien-pontorson-50170-2271"
"28","647","49127","Durtal","Durtal",11,"52","Pays de la Loire","49","127","Durtal",3459,47.6780515421,-0.254608332885,351511357,52,3.51511e+13,2000-05-01,2019,2021-10-27 08:02:05,FALSE,1989-06-01,5710,"SARTHE OPTIQUE",NA,"OPTIC",NA,NA,NA,NA,NA,NA,NA,NA,NA,NA,NA,"47.78A",NA,"N","2",2019,60,2022-03-10 03:50:32,"PME",2019,NA,"DURTAL",NA,"OPTIC 2000",NA,NA,NA,"24 RUE ST PIERRE 49430",NA,4488,"optic 2000",1,0,0,1,1,NA,0,"44470","https://opticiens.optic2000.com/opticien-durtal-49430-818"
"29","587","66016","Banyuls-sur-Mer","Banyuls-sur-Mer",11,"76","Occitanie","66","16","Banyuls-sur-Mer",4838,42.4614750255,3.09989653778,503228603,26,5.03229e+13,2009-01-01,NA,2019-11-14 14:00:52,FALSE,2008-04-01,5499,"CAMP BANYULS",NA,"OPTIQUE COTE VERMEILLE",NA,NA,NA,NA,NA,NA,NA,NA,NA,NA,NA,"47.78A",NA,NA,"2",2019,18,2021-10-27 08:06:52,"PME",2019,NA,"BANYULS-SUR-MER",NA,NA,NA,NA,NA,"19 RUE SAINT PIERRE 66650",NA,6210,NA,NA,NA,NA,NA,NA,NA,NA,NA,NA
"30","587","66016","Banyuls-sur-Mer","Banyuls-sur-Mer",11,"76","Occitanie","66","16","Banyuls-sur-Mer",4838,42.4614750255,3.09989653778,503228603,34,5.03229e+13,2009-10-01,2019,2021-10-27 08:06:52,FALSE,2008-04-01,5499,"CAMP BANYULS",NA,"OPTIQUE COTE VERMEILLE",NA,NA,NA,NA,NA,NA,NA,NA,NA,NA,NA,"47.78A",NA,NA,"2",2019,18,2021-10-27 08:06:52,"PME",2019,NA,"BANYULS-SUR-MER",NA,"OPTIQUE COTE VERMEILLE",NA,NA,NA,"2 AV DE LA REPUBLIQUE 66650",NA,6210,NA,0,0,0,0,0,NA,1,"43739",NA
"31","610","88078","Bruyères","Bruyères",11,"44","Grand Est","88","78","Bruyères",3117,48.2129348466,6.71603066311,379585359,27,3.79585e+13,2004-09-13,2019,2021-10-27 08:07:25,TRUE,1990-10-01,5710,"OPTIQUE MEDICALE BUFFARD",NA,"OPTIC 2000",NA,NA,NA,NA,NA,NA,NA,NA,NA,NA,NA,"47.78A",NA,"N","1",2019,27,2021-10-27 08:07:25,"PME",2019,NA,"BRUYERES",NA,NA,NA,NA,NA,"16 AV DU CAMEROUN 88600",NA,5590,"optic 2000",1,0,1,0,1,NA,0,"44681","https://opticiens.optic2000.com/opticien-bruyeres-88600-902"
"32","526","56010","Baud","Baud",11,"53","Bretagne","56","10","Baud",6454,47.8753982698,-3.03131524701,521907188,10,5.21907e+13,2010-04-01,2018,2020-08-25 10:36:12,TRUE,2010-04-01,5499,"OPTIQUE MICHARD BAUD","O.M.B.",NA,NA,NA,NA,NA,NA,NA,NA,NA,NA,NA,NA,"47.78A",NA,NA,"0",2018,10,2020-08-25 10:36:12,"PME",2019,NA,"BAUD",NA,NA,NA,NA,NA,"11 PL LE SCIELLOUR 56150",NA,8247,"optic 2000",1,0,1,1,1,NA,0,"44682","https://opticiens.optic2000.com/opticien-baud-56150-2524"
"33","526","56010","Baud","Baud",11,"53","Bretagne","56","10","Baud",6454,47.8753982698,-3.03131524701,819441387,19,8.19441e+13,2016-03-30,2019,2021-10-27 09:24:59,TRUE,2016-03-30,5499,"OPTIC BAUD",NA,NA,NA,NA,NA,NA,NA,NA,NA,NA,NA,NA,NA,"47.78A",NA,NA,"1",2019,19,2021-10-27 09:24:59,"PME",2019,NA,"BAUD",NA,NA,NA,NA,NA,"6 PL DU MARCHE 56150",NA,8247,"vision plus",1,0,1,0,1,NA,0,"44228","https://www.lecollectifdeslunetiers.fr/opticien/france/morbihan/opticien-baud/baud"
"34","558","19276","Uzerche","Uzerche",11,"75","Nouvelle-Aquitaine","19","276","Uzerche",2870,45.4238857521,1.56525480659,381602374,54,3.81602e+13,2010-11-18,2019,2021-10-27 08:09:46,FALSE,1991-04-01,5710,"OAPR",NA,NA,NA,NA,NA,NA,NA,NA,NA,NA,NA,NA,NA,"47.78A",NA,NA,"3",2019,47,2021-10-27 08:09:46,"PME",2019,"ANGLE 7 PLACE MARIE COLEIN","UZERCHE",NA,"VISION PLUS",NA,NA,NA,"ET DE L'AVENIR DE PARIS 19140",NA,7181,"vision plus",1,1,0,0,1,NA,0,"44348","https://www.lecollectifdeslunetiers.fr/opticien/france/correze/opticien-uzerche/uzerche-placecolein"
"35","556","22209","Beaussais-sur-Mer","Pleslin-Trigavou",12,"53","Bretagne","22","209","Beaussais-sur-Mer",3618,48.5596688192,-2.12838362694,817471584,26,8.17472e+13,2020-01-06,NA,2020-03-04 08:36:18,TRUE,2015-12-29,5499,"LES LUNETTES D EGLANTINE",NA,NA,NA,NA,NA,NA,NA,NA,NA,NA,NA,NA,NA,"47.78A",NA,"N","1",2019,26,2021-10-27 09:22:35,"PME",2019,"PLOUBALAY","BEAUSSAIS-SUR-MER",NA,"LES LUNETTES D'EGLANTINE",NA,NA,"LES LUNETTES D'EGLANTINE","1 PL DU MARTRAY 22650",NA,7319,NA,0,0,0,0,0,NA,0,"44256","https://www.facebook.com/leslunettesdeglantine/?ref=hl"
"36","511","87011","Bellac","Bellac",11,"75","Nouvelle-Aquitaine","87","11","Bellac",3955,46.1049122554,1.04116467219,491602884,26,4.91603e+13,2015-07-15,NA,2021-02-23 13:58:00,TRUE,2006-08-24,5499,"VICHERY OPTIQUE",NA,NA,NA,NA,NA,NA,NA,NA,NA,NA,NA,NA,NA,"47.78A",NA,NA,"NN",NA,26,2017-08-04 03:58:02,"PME",2019,NA,"BELLAC",NA,NA,NA,NA,NA,"36 RUE THIERS 87300",NA,8696,NA,NA,NA,NA,NA,NA,NA,NA,NA,NA
"37","545","51380","Montmirail","Montmirail",11,"44","Grand Est","51","380","Montmirail",3648,48.8802869076,3.56048556258,382294577,38,3.82295e+13,2000-11-18,NA,2008-01-04 22:07:56,FALSE,1991-07-01,5499,"OPTIQUE CHARLOT",NA,NA,NA,NA,NA,NA,NA,NA,NA,NA,NA,NA,NA,"47.78A",NA,NA,"1",2019,12,2021-10-27 08:10:31,"PME",2019,NA,"MONTMIRAIL",NA,NA,NA,NA,NA,"29 PL REMY PETIT 51210",NA,7594,"atol",0,0,0,0,0,NA,0,"43891","https://www.opticiens-atol.com/opticiens/montmirail-29-place-remy-petit?utm_source=Yext&utm_medium=GMB&y_source=1_MTUwOTU4MzYtNzE1LWxvY2F0aW9uLndlYnNpdGU%3D"
"38","511","87011","Bellac","Bellac",11,"75","Nouvelle-Aquitaine","87","11","Bellac",3955,46.1049122554,1.04116467219,775716673,196,7.75717e+13,1986-01-01,2019,2021-10-27 08:54:26,FALSE,1900-01-01,9220,"MUTUALITE FRANCAISE LIMOUSINE",NA,NA,NA,NA,NA,NA,NA,NA,NA,NA,NA,NA,NA,"65.12Z",NA,"O","41",2019,14,2022-01-07 08:39:10,"ETI",2019,"ECOUTER VOIR OPTIQUE BELLAC","BELLAC",NA,"ECOUTER VOIR OPTIQUE BELLAC",NA,NA,NA,"12 AV DENFERT ROCHEREAU 87300",NA,8696,"ecouter voir",1,1,1,1,1,NA,0,"44228","https://www.ecoutervoir.fr/"
"39","511","87011","Bellac","Bellac",11,"75","Nouvelle-Aquitaine","87","11","Bellac",3955,46.1049122554,1.04116467219,834798308,13,8.34798e+13,2018-01-01,2019,2021-10-27 09:39:17,TRUE,2018-01-01,5710,"BEL'OPTIC",NA,NA,NA,NA,NA,NA,NA,NA,NA,NA,NA,NA,NA,"47.78A",NA,NA,"2",2019,13,2021-10-27 09:39:17,"PME",2019,NA,"BELLAC",NA,"BEL'OPTIC",NA,NA,"BEL'OPTIC","20 AV RENE COTY 87300",NA,8696,NA,0,0,0,0,0,NA,0,"41913","https://www.beloptic.fr/"
"40","605","56013","Belz","Belz",11,"53","Bretagne","56","13","Belz",3767,47.6719818192,-3.16245947522,442791802,48,4.42792e+13,2021-07-09,NA,2021-08-17 14:21:51,FALSE,2002-08-01,5710,"BREIZ OPTIQUE",NA,NA,NA,NA,NA,NA,NA,NA,NA,NA,NA,NA,NA,"47.78A",NA,"N","1",2019,14,2021-10-27 08:23:22,"PME",2019,NA,"BELZ",NA,NA,NA,NA,NA,"7 RUE DU COUVENT 56550",NA,5927,"optic 2000",1,0,1,1,1,NA,0,"44440","https://opticiens.optic2000.com/opticien-belz-56550-2251"
"41","534","10064","Brienne-le-Château","Brienne-le-Château",11,"44","Grand Est","10","64","Brienne-le-Château",2852,48.3974195288,4.53928532253,389275074,18,3.89275e+13,1992-10-01,2019,2021-10-27 08:16:47,TRUE,1992-10-01,5710,"OPTIQUE RIVET",NA,NA,NA,NA,NA,NA,NA,NA,NA,NA,NA,NA,NA,"47.78A",NA,"N","2",2019,18,2021-10-27 08:16:47,"PME",2019,NA,"BRIENNE-LE-CHATEAU",NA,NA,NA,NA,NA,"5 PL DE LA REPUBLIQUE 10500",NA,7824,NA,0,0,0,0,0,NA,0,"40483",NA
"42","605","56013","Belz","Belz",11,"53","Bretagne","56","13","Belz",3767,47.6719818192,-3.16245947522,500530910,24,5.00531e+13,2007-12-01,NA,2017-05-02 08:39:33,FALSE,2007-12-01,5499,"LALOPTIC BELZ",NA,"OPTIQUE DE LA RIA",NA,NA,NA,NA,NA,NA,NA,NA,NA,NA,NA,"47.78A",NA,NA,"NN",NA,16,2020-12-18 11:08:13,"PME",2019,NA,"BELZ",NA,"LALOPTIC",NA,NA,NA,"RUE DU STADE 56550",NA,5927,NA,NA,NA,NA,NA,NA,NA,NA,NA,NA
"43","577","27065","Beuzeville","Beuzeville",11,"28","Normandie","27","65","Beuzeville",4667,49.3380079083,0.342706713598,440580348,25,4.4058e+13,2006-08-01,2019,2021-10-27 08:20:28,FALSE,2002-01-04,5499,"TOPOPHIS",NA,"OPTIC 2000",NA,NA,NA,NA,NA,NA,NA,NA,NA,NA,NA,"47.78A",NA,NA,"2",2019,17,2021-10-27 08:20:28,"PME",2019,NA,"BEUZEVILLE",NA,"TOP'OPTIC",NA,NA,NA,"150 RUE CONSTANT FOUCHE 27210",NA,6488,NA,1,0,0,0,1,NA,0,"44378",NA
"44","570","67281","Marckolsheim","Marckolsheim",11,"44","Grand Est","67","281","Marckolsheim",4215,48.1496222393,7.56101805973,390425882,185,3.90426e+13,2021-10-19,NA,2021-11-23 03:59:12,TRUE,1993-06-01,5710,"EUROPTIQUE",NA,NA,NA,NA,NA,NA,NA,NA,NA,NA,NA,NA,NA,"47.78A",NA,"N","12",2019,185,2021-12-08 09:13:33,"PME",2019,NA,"MARCKOLSHEIM",NA,NA,NA,NA,NA,"3 RUE CLEMENCEAU 67390",NA,6723,"atol",0,0,0,0,0,NA,0,"44562","https://www.opticiens-atol.com/opticiens/marckolsheim-3-rue-clemenceau?utm_source=Yext&utm_medium=GMB&y_source=1_MTUwOTUzOTYtNzE1LWxvY2F0aW9uLndlYnNpdGU%3D"
"45","577","27065","Beuzeville","Beuzeville",11,"28","Normandie","27","65","Beuzeville",4667,49.3380079083,0.342706713598,525387874,31,5.25388e+13,2021-11-30,NA,2022-01-31 10:19:01,TRUE,2010-09-17,5710,"BILLOTTE OPTIQUE",NA,NA,NA,NA,NA,NA,NA,NA,NA,NA,NA,NA,NA,"47.78A",NA,"N",NA,NA,31,2022-01-31 10:19:01,"PME",2019,NA,"BEUZEVILLE",NA,NA,NA,NA,"OPTIQUE VOLOIR","9 RUE DE VERDUN 27210",NA,6488,NA,1,0,1,0,0,NA,0,"43344",NA
"46","547","62364","Fruges","Fruges",11,"32","Hauts-de-France","62","364","Fruges",2611,50.5130111281,2.1230697319,390665594,60,3.90666e+13,1997-02-01,2019,2021-10-27 08:18:25,FALSE,1992-11-01,5499,"MERLIN DELCLOY HEBERT OPTICIENS",NA,NA,NA,NA,NA,NA,NA,NA,NA,NA,NA,NA,NA,"47.78A",NA,NA,"11",2019,52,2021-10-27 08:18:25,"PME",2019,NA,"FRUGES",NA,NA,NA,NA,NA,"RUE DU MARECHAL LECLERC 62310",NA,7887,"atol",1,0,0,0,0,"free eye test",0,"44166",NA
"47","679","62588","Montreuil","Montreuil",11,"32","Hauts-de-France","62","588","Montreuil",2144,50.4655272073,1.77098646216,390665594,86,3.90666e+13,2005-03-15,2019,2021-10-27 08:18:25,FALSE,1992-11-01,5499,"MERLIN DELCLOY HEBERT OPTICIENS",NA,NA,NA,NA,NA,NA,NA,NA,NA,NA,NA,NA,NA,"47.78A",NA,NA,"11",2019,52,2021-10-27 08:18:25,"PME",2019,NA,"MONTREUIL",NA,"ATOL HEBERT OPTICIENS",NA,NA,NA,"58 PL GENERAL DE GAULLE 62170",NA,2144,"atol",0,0,0,0,0,NA,0,"44166","https://www.opticiens-atol.com/opticiens/montreuil-sur-mer-58-place-du-general-de-gaulle"
"48","637","40224","Peyrehorade","Peyrehorade",11,"75","Nouvelle-Aquitaine","40","224","Peyrehorade",3870,43.5583873014,-1.10698952951,390749547,191,3.9075e+13,2018-01-01,NA,2020-11-16 09:59:44,FALSE,1993-04-09,8210,"MUTUALITE FRANCAISE LANDES","ULMF",NA,NA,NA,NA,NA,NA,NA,NA,NA,NA,NA,NA,"65.12Z",NA,"O","21",2019,209,2021-12-29 08:37:16,"PME",2019,"ECOUTER VOIR OPTIQUE MUTUALISTE","PEYREHORADE",NA,"ECOUTER VOIR OPTIQUE MUTUALISTE",NA,NA,"MUTUALITE FRANCAISE LANDES","1500 RTE DE BAYONNE 40300",NA,4823,"ecouter voir",1,1,1,1,1,NA,0,"44683","https://www.ecoutervoir.fr/trouver-un-magasin/peyrehorade/"
"49","659","59092","Bouchain","Bouchain",11,"32","Hauts-de-France","59","92","Bouchain",3991,50.2808463643,3.3121651121,391205101,28,3.91205e+13,2005-08-01,NA,2022-03-07 03:35:38,FALSE,1993-05-01,5710,"SASU OPTIQUE EDOUARD LINGLIN",NA,NA,NA,NA,NA,NA,NA,NA,NA,NA,NA,NA,NA,"47.78A",NA,NA,"3",2019,10,2022-03-07 03:35:38,"PME",2019,NA,"BOUCHAIN",NA,"VISION PLUS",NA,NA,NA,"40 PL DU GENERAL THOLOZE 59111",NA,3991,"vision plus",1,0,0,0,0,NA,0,"43586","https://www.lecollectifdeslunetiers.fr/opticien/france/nord/opticien-bouchain/bouchain-ruetholoze"
"50","673","67474","Soultz-sous-Forêts","Soultz-sous-Forêts",11,"44","Grand Est","67","474","Soultz-sous-Forêts",3212,48.9461642075,7.87359864642,391811304,313,3.91811e+13,2012-03-03,2019,2021-10-27 08:19:37,FALSE,1993-06-18,5710,"JOBAL EXPANSION OPTIC",NA,"OPTISSIMO",NA,NA,NA,NA,NA,NA,NA,NA,NA,NA,NA,"47.78A",NA,"N","21",2019,198,2021-10-27 08:19:37,"PME",2019,NA,"SOULTZ-SOUS-FORETS",NA,NA,NA,NA,NA,"40 RUE DES BARONS DE FLECKENSTEIN 67250",NA,3212,"lissac",0,0,0,1,0,NA,0,"43070","https://www.lissac-soultzsousforets.fr/magasin.htm"
"51","590","61145","Domfront en Poiraie","Domfront en Poiraie",11,"28","Normandie","61","145","Domfront en Poiraie",4370,48.5824684934,-0.61398156582,392292884,13,3.92293e+13,1993-08-24,NA,2015-08-26 03:11:14,TRUE,1993-08-24,1000,NA,NA,"OPTIQUE DESLANDES",NA,NA,"F","ALLIET","DESLANDES","FLORENCE","NICOLE",NA,NA,"FLORENCE",NA,"47.78A",NA,NA,"NN",NA,13,2017-05-20 03:00:42,"PME",2019,NA,"DOMFRONT-EN-POIRAIE",NA,NA,NA,NA,NA,"4  GRANDE RUE 61700",NA,6223,NA,0,0,0,0,0,NA,0,"43313",NA
"52","574","72269","Saint-Calais","Saint-Calais",11,"52","Pays de la Loire","72","269","Saint-Calais",3431,47.9250578354,0.747660967628,392813606,10,3.92814e+13,1993-10-01,2019,2021-10-27 08:20:45,TRUE,1993-10-01,5710,"COUTABLE-ARRIAT",NA,"P-COUTABLE OPTIQUE 2000",NA,NA,NA,NA,NA,NA,NA,NA,NA,NA,NA,"47.78A",NA,"N","2",2019,10,2021-10-27 08:20:45,"PME",2019,NA,"SAINT-CALAIS",NA,NA,NA,NA,NA,"13 RUE DU DAUPHIN 72120",NA,6747,"optic 2000",1,1,1,0,1,NA,0,"44316","https://opticiens.optic2000.com/opticien-saint-calais-72120-299"
"53","624","72176","Le Lude","Le Lude",11,"52","Pays de la Loire","72","176","Le Lude",4328,47.6542548485,0.150109969187,393068671,14,3.93069e+13,1993-11-01,2019,2021-10-27 08:21:00,TRUE,1993-11-01,5499,"OPTIQUE CHAPUY",NA,NA,NA,NA,NA,NA,NA,NA,NA,NA,NA,NA,NA,"47.78A",NA,"N","3",2019,14,2021-10-27 08:21:00,"PME",2019,"51","LE LUDE",NA,NA,NA,NA,NA,"49 RUE D OREE 72800",NA,5122,NA,0,0,0,0,0,NA,1,"44621","https://www.lecollectifdeslunetiers.fr/opticien/france/sarthe/opticien-le-lude/lelude-72"
"54","517","57089","Bitche","Bitche",11,"44","Grand Est","57","89","Bitche",5216,49.0473471719,7.459601871,318339058,48,3.18339e+13,1991-12-19,2019,2021-10-27 08:20:41,TRUE,1980-06-01,5499,"ALSALOR OPTIQUE",NA,"OPTIQUE DU CENTRE",NA,NA,NA,NA,NA,NA,NA,NA,NA,NA,NA,"47.78A",NA,NA,"3",2019,48,2021-10-27 08:20:41,"PME",2019,NA,"BITCHE",NA,NA,NA,NA,NA,"48 RUE MARECHAL FOCH 57230",NA,8601,NA,0,0,0,0,0,NA,1,"43617",NA
"55","663","22172","Plancoët","Plancoët",11,"53","Bretagne","22","172","Plancoët",3067,48.5148616647,-2.21936660339,394940829,28,3.94941e+13,2002-07-01,2019,2021-10-27 08:23:02,FALSE,1994-06-01,5710,"PASSARET",NA,NA,NA,NA,NA,NA,NA,NA,NA,NA,NA,NA,NA,"47.78A",NA,"N","3",2019,10,2021-10-27 08:23:02,"PME",2019,NA,"PLANCOET",NA,NA,NA,NA,NA,"5 PL DE LA MAIRIE 22130",NA,3944,"optic 2000",1,0,1,1,1,NA,0,"42948","https://opticiens.optic2000.com/opticien-plancoet-22130-1279"
"56","679","62588","Montreuil","Montreuil",11,"32","Hauts-de-France","62","588","Montreuil",2144,50.4655272073,1.77098646216,398781930,43,3.98782e+13,2017-04-01,NA,2021-02-23 11:22:34,TRUE,1994-11-01,1000,NA,NA,"OPTIQUE TESTU",NA,NA,"M","TESTU",NA,"CHRISTOPHE","HENRI",NA,NA,"CHRISTOPHE",NA,"47.78A",NA,NA,"2",2019,43,2021-10-27 08:24:59,"PME",2019,NA,"MONTREUIL",NA,NA,NA,NA,"OPTIQUE TESTU","73 RUE PIERRE LEDENT 62170",NA,2144,"optic 2000",1,0,0,0,0,NA,0,"43862","https://opticiens.optic2000.com/opticien-montreuil-sur-mer-62170-550/actualites"
"57","517","57089","Bitche","Bitche",11,"44","Grand Est","57","89","Bitche",5216,49.0473471719,7.459601871,840823504,21,8.40824e+13,2019-10-01,2019,2021-10-27 09:43:07,FALSE,2018-07-02,5499,"BITCHE-OPTIC",NA,NA,NA,NA,NA,NA,NA,NA,NA,NA,NA,NA,NA,"47.78A",NA,"N","2",2019,13,2021-10-27 09:43:07,"PME",2019,NA,"BITCHE",NA,"OPTIC 2000",NA,NA,NA,"17 RUE GENERAL STUHL 57230",NA,8601,NA,0,0,1,0,0,NA,0,"43617",NA
"58","623","28051","Bonneval","Bonneval",11,"24","Centre-Val de Loire","28","51","Bonneval",5158,48.1812188908,1.3853348704,789578705,38,7.89579e+13,2012-12-01,2019,2021-10-27 08:57:52,FALSE,2012-11-26,5499,"C.B.O.",NA,NA,NA,NA,NA,NA,NA,NA,NA,NA,NA,NA,NA,"47.78A",NA,"N","3",2019,20,2022-01-24 20:12:38,"PME",2019,NA,"BONNEVAL",NA,"VISION PLUS",NA,NA,NA,"7 RUE HERISSON 28800",NA,5158,"vision plus",0,0,0,0,0,NA,0,"42614","https://www.lecollectifdeslunetiers.fr/opticien/france/eure-et-loir/opticien-bonneval/bonneval-herisson"
"59","537","67434","Sarre-Union","Sarre-Union",11,"44","Grand Est","67","434","Sarre-Union",2867,48.9451866571,7.08863161456,401527486,13,4.01527e+13,1995-07-28,2019,2021-10-27 08:27:52,TRUE,1995-07-28,5499,"AUDIO OPTICA",NA,NA,NA,NA,NA,NA,NA,NA,NA,NA,NA,NA,NA,"47.78A",NA,NA,"1",2019,13,2021-10-27 08:27:52,"PME",2019,NA,"SARRE-UNION",NA,NA,NA,NA,NA,"2 RUE DE PHALSBOURG 67260",NA,7738,"atol",0,0,0,0,0,NA,0,"44470","https://www.opticiens-atol.com/opticiens/sarre-union-2-rue-de-phalsbourg"
"60","514","71047","Bourbon-Lancy","Bourbon-Lancy",11,"27","Bourgogne-Franche-Comté","71","47","Bourbon-Lancy",5000,46.6204280383,3.76862021355,414247692,18,4.14248e+13,1997-11-15,2019,2021-10-27 08:37:35,TRUE,1997-11-15,5499,"SARL BOURBON OPTIQUE",NA,NA,NA,NA,NA,NA,NA,NA,NA,NA,NA,NA,NA,"47.78A",NA,NA,"1",2019,18,2021-10-27 08:37:35,"PME",2019,NA,"BOURBON-LANCY",NA,NA,NA,NA,NA,"15 AV GENERAL DE GAULLE 71140",NA,8585,NA,1,0,1,0,1,NA,0,"44593",NA
"61","514","71047","Bourbon-Lancy","Bourbon-Lancy",11,"27","Bourgogne-Franche-Comté","71","47","Bourbon-Lancy",5000,46.6204280383,3.76862021355,480836667,26,4.80837e+13,2015-04-27,2019,2021-10-27 08:17:01,TRUE,2005-01-02,5499,"OPTIQUE REPUBLIQUE",NA,NA,NA,NA,NA,NA,NA,NA,NA,NA,NA,NA,NA,"47.78A",NA,NA,"1",2019,26,2021-10-27 08:17:01,"PME",2019,NA,"BOURBON-LANCY",NA,"OPTIQUE REPUBLIQUE",NA,NA,"OPTIQUE REPUBLIQUE","5 PL DE LA REPUBLIQUE 71140",NA,8585,"atol",1,0,1,1,1,NA,0,"44075","https://www.opticiens-atol.com/opticiens/bourbon-lancy-5-place-de-la-republique?utm_source=Yext&utm_medium=GMB&y_source=1_MTUwOTU4OTQtNzE1LWxvY2F0aW9uLndlYnNpdGU%3D"
"62","514","71047","Bourbon-Lancy","Bourbon-Lancy",11,"27","Bourgogne-Franche-Comté","71","47","Bourbon-Lancy",5000,46.6204280383,3.76862021355,509048492,29,5.09048e+13,2016-10-01,2019,2021-10-27 08:13:37,TRUE,2008-11-18,1000,NA,NA,"OPTIQUE MAUPAS",NA,NA,"F","MORTIMORE","MAUPAS","GAELLE",NA,NA,NA,"GAELLE",NA,"47.78A",NA,NA,"1",2019,29,2021-10-27 08:13:37,"PME",2019,NA,"BOURBON-LANCY",NA,NA,NA,NA,NA,"13 B RUE D AUTUN 71140",NA,8585,NA,0,0,0,0,0,NA,1,"43709","https://optiquemaupas-bourbonlancy.monopticien.com/"
"63","599","19010","Argentat-sur-Dordogne","Argentat-sur-Dordogne",11,"75","Nouvelle-Aquitaine","19","10","Argentat-sur-Dordogne",3136,45.1011667634,1.93436308377,403130438,19,4.0313e+13,1995-12-15,2019,2021-10-27 08:29:24,TRUE,1995-12-15,1000,NA,NA,"ARGENTAT OPTIQUE",NA,NA,"M","DELRIEU",NA,"DANIEL",NA,NA,NA,"DANIEL",NA,"47.78A",NA,NA,"1",2019,19,2021-10-27 08:29:24,"PME",2019,NA,"ARGENTAT-SUR-DORDOGNE",NA,NA,NA,NA,NA,"1 AV HENRI 4 19400",NA,5967,NA,0,0,0,0,0,NA,0,"44256","http://www.argentatoptique.fr/"
"64","621","56066","Gourin","Gourin",11,"53","Bretagne","56","66","Gourin",3952,48.1365207443,-3.60390071405,403998479,14,4.03998e+13,1996-02-22,2019,2021-10-27 08:30:14,TRUE,1996-02-22,5499,"SARL CENTRAL OPTIC",NA,NA,NA,NA,NA,NA,NA,NA,NA,NA,NA,NA,NA,"47.78A",NA,NA,"1",2019,14,2021-10-27 08:30:14,"PME",2019,NA,"GOURIN",NA,NA,NA,NA,NA,"PL STENFORT 56110",NA,5273,NA,NA,NA,NA,NA,NA,NA,NA,NA,NA
"65","529","31042","Bagnères-de-Luchon","Bagnères-de-Luchon",11,"76","Occitanie","31","42","Bagnères-de-Luchon",2455,42.736147731,0.626640395614,405298829,12,4.05299e+13,1996-05-15,2019,2021-10-27 08:31:13,TRUE,1996-05-15,5499,"LUCHON OPTIQUE SARL",NA,"LUCHON OPTIQUE",NA,NA,NA,NA,NA,NA,NA,NA,NA,NA,NA,"47.78A",NA,NA,"1",2019,12,2021-10-27 08:31:13,"PME",2019,NA,"BAGNERES-DE-LUCHON",NA,NA,NA,NA,NA,"17 ALL D ETIGNY 31110",NA,8227,"optic 2000",0,0,0,0,0,NA,0,"43374","https://opticiens.optic2000.com/opticien-luchon-31110-1758"
"66","501","57106","Bouzonville","Bouzonville",11,"44","Grand Est","57","106","Bouzonville",4027,49.2988626834,6.54161019887,314176777,30,3.14177e+13,1993-07-01,2019,2021-10-27 08:18:45,TRUE,1978-01-01,5499,"VISION 2000",NA,NA,NA,NA,NA,NA,NA,NA,NA,NA,NA,NA,NA,"47.78A",NA,NA,"2",2019,30,2021-10-27 08:18:45,"PME",2019,NA,"BOUZONVILLE",NA,NA,NA,NA,NA,"47 RUE DE LA REPUBLIQUE 57320",NA,8799,NA,1,0,1,1,1,NA,0,"44682","https://opticiens.optic2000.com/opticien-bouzonville-57320-77"
"67","501","57106","Bouzonville","Bouzonville",11,"44","Grand Est","57","106","Bouzonville",4027,49.2988626834,6.54161019887,432060341,18,4.3206e+13,2000-06-01,2019,2021-10-27 08:11:19,TRUE,2000-06-01,5499,"SARRE OPTIC",NA,NA,NA,NA,NA,NA,NA,NA,NA,NA,NA,NA,NA,"47.78A",NA,NA,"1",2019,18,2021-10-27 08:11:19,"PME",2019,NA,"BOUZONVILLE",NA,"OPTIC.COM",NA,NA,NA,"1 RUE DE LA REPUBLIQUE 57320",NA,8799,"alain afflelou",0,0,0,0,0,NA,0,"43647",NA
"68","575","17283","Pons","Pons",11,"75","Nouvelle-Aquitaine","17","283","Pons",4431,45.5770487335,-0.557449237102,410293401,23,4.10293e+13,1997-04-01,2019,2021-10-27 08:33:44,FALSE,1997-01-15,5710,"ALBATROS",NA,"PROFESSION OPTICIEN",NA,NA,NA,NA,NA,NA,NA,NA,NA,NA,NA,"47.78A",NA,"N","3",2019,31,2021-10-27 08:33:44,"PME",2019,NA,"PONS",NA,NA,NA,NA,NA,"3 RUE PASTEUR 17800",NA,6733,NA,0,0,0,0,0,NA,0,"43647","https://www.profession-opticien.com/"
"69","501","57106","Bouzonville","Bouzonville",11,"44","Grand Est","57","106","Bouzonville",4027,49.2988626834,6.54161019887,488071788,19,4.88072e+13,2006-02-01,2019,2021-10-27 08:24:45,TRUE,2006-02-01,5499,"REPUBLIC OPTIC",NA,NA,NA,NA,NA,NA,NA,NA,NA,NA,NA,NA,NA,"47.78A",NA,NA,"2",2019,19,2021-10-27 08:24:45,"PME",2019,NA,"BOUZONVILLE",NA,"LA CENTRALE D'OPTIQUE",NA,NA,NA,"42 RUE DE LA REPUBLIQUE 57320",NA,8799,NA,1,1,1,0,0,NA,0,"44013",NA
"70","501","57106","Bouzonville","Bouzonville",11,"44","Grand Est","57","106","Bouzonville",4027,49.2988626834,6.54161019887,837806785,15,8.37807e+13,2018-01-01,2019,2021-10-27 09:40:18,TRUE,2018-01-01,5499,"WEBAROPTIK",NA,NA,NA,NA,NA,NA,NA,NA,NA,NA,NA,NA,NA,"47.78A",NA,NA,"1",2019,15,2021-10-27 09:40:18,"PME",2019,NA,"BOUZONVILLE",NA,"OPTIKSTUDIO",NA,NA,NA,"20 RUE DE LA REPUBLIQUE 57320",NA,8799,NA,0,0,0,0,0,NA,0,"43862","https://optikstudio.fr/"
"71","667","22020","Broons","Broons",11,"53","Bretagne","22","20","Broons",2935,48.3108134882,-2.24133807266,27350271,55,2.73503e+12,2007-05-01,NA,2014-06-27 00:10:31,FALSE,1973-01-01,5499,"OPTIC ARMOR SARL",NA,NA,NA,NA,NA,NA,NA,NA,NA,NA,NA,NA,NA,"47.78A",NA,NA,"2",2019,48,2021-10-27 08:00:52,"PME",2019,NA,"BROONS",NA,"OPTIC ARMOR",NA,NA,NA,"1 RUE DE LA TRINITE 22250",NA,3718,NA,0,0,0,0,1,NA,0,"44621",NA
"72","535","28061","Brou","Brou",11,"24","Centre-Val de Loire","28","61","Brou",3440,48.2174479455,1.15740318839,431741032,46,4.31741e+13,2014-07-01,2019,2021-10-27 08:10:55,FALSE,2000-04-01,5710,"OPTIQUE PIGEARD",NA,NA,NA,NA,NA,NA,NA,NA,NA,NA,NA,NA,NA,"47.78A",NA,"N","11",2019,53,2021-10-27 08:10:55,"PME",2019,NA,"BROU",NA,NA,NA,NA,NA,"1 PL D ARMES 28160",NA,7775,NA,1,1,1,1,1,NA,0,"44682","https://pigeard-opticiens.fr/"
"73","618","81124","Lacaune","Lacaune",11,"76","Occitanie","81","124","Lacaune",2580,43.6972753085,2.68833285874,410626261,29,4.10626e+13,2006-11-06,2019,2021-10-27 08:34:08,TRUE,1997-01-01,1000,NA,NA,NA,NA,NA,"M","VERGELY",NA,"CHRISTOPHE",NA,NA,NA,"CHRISTOPHE",NA,"47.78A",NA,NA,"2",2019,29,2021-10-27 08:34:09,"PME",2019,NA,"LACAUNE",NA,NA,NA,NA,NA,"3 RUE DE LA MAIRIE 81230",NA,5400,NA,1,1,0,1,1,NA,0,"44531",NA
"74","535","28061","Brou","Brou",11,"24","Centre-Val de Loire","28","61","Brou",3440,48.2174479455,1.15740318839,483962023,14,4.83962e+13,2005-09-05,NA,2018-09-29 12:26:50,FALSE,2005-09-05,5499,"SARL OPT'ONE",NA,"OPTIC 2000",NA,NA,NA,NA,NA,NA,NA,NA,NA,NA,NA,"47.78A",NA,NA,"1",2019,22,2021-10-27 08:21:30,"PME",2019,NA,"BROU",NA,NA,NA,NA,NA,"23 PL DES HALLES 28160",NA,7775,NA,NA,NA,NA,NA,NA,NA,NA,NA,NA
"75","535","28061","Brou","Brou",11,"24","Centre-Val de Loire","28","61","Brou",3440,48.2174479455,1.15740318839,483962023,22,4.83962e+13,2014-03-22,2019,2021-10-27 08:21:30,TRUE,2005-09-05,5499,"SARL OPT'ONE",NA,"OPTIC 2000",NA,NA,NA,NA,NA,NA,NA,NA,NA,NA,NA,"47.78A",NA,NA,"1",2019,22,2021-10-27 08:21:30,"PME",2019,NA,"BROU",NA,"OPTIC 2000",NA,NA,NA,"13 PL DES HALLES 28160",NA,7775,NA,1,0,1,1,1,NA,0,"44682","https://opticiens.optic2000.com/opticien-brou-28160-1837"
"76","626","70467","Saint-Loup-sur-Semouse","Saint-Loup-sur-Semouse",11,"27","Bourgogne-Franche-Comté","70","467","Saint-Loup-sur-Semouse",3301,47.8785688968,6.26623762115,412207755,23,4.12208e+13,1997-04-01,2019,2021-10-27 08:35:39,FALSE,1997-04-01,5499,"OPTIQUE SOLIGOT",NA,"OPTIQUE SOLIGOT M JORIOT",NA,NA,NA,NA,NA,NA,NA,NA,NA,NA,NA,"47.78A",NA,NA,"3",2019,15,2021-10-27 08:35:39,"PME",2019,NA,"SAINT-LOUP-SUR-SEMOUSE",NA,"OPTIQUE SOLIGOT M JORIOT",NA,NA,NA,"27 RUE HENRI GUY 70800","RUE DES HALLES 70800",5104,NA,0,1,0,0,0,NA,0,"43647","https://optiquesoligot.com/opticien-soligot-saint-loup-semouse/"
"77","631","72334","Sillé-le-Guillaume","Sillé-le-Guillaume",11,"52","Pays de la Loire","72","334","Sillé-le-Guillaume",2391,48.1864769196,-0.132591918679,412606378,104,4.12606e+13,2003-12-02,2019,2021-10-27 08:36:02,FALSE,1997-06-02,5710,"LES CREATEURS DE CONFORT VISUEL",NA,NA,NA,NA,NA,NA,NA,NA,NA,NA,NA,NA,NA,"47.78A",NA,"N","12",2019,187,2021-10-27 08:36:02,"PME",2019,NA,"SILLE-LE-GUILLAUME",NA,"OPTIC 2000 BRACQ OPTICIENS",NA,NA,NA,"3 PL ST ETIENNE 72140",NA,4937,"optic 2000",1,1,0,0,1,NA,0,"42979","https://opticiens.optic2000.com/opticien-sille-le-guillaume-72140-1428"
"78","535","28061","Brou","Brou",11,"24","Centre-Val de Loire","28","61","Brou",3440,48.2174479455,1.15740318839,805109667,16,8.0511e+13,2014-11-01,NA,2014-10-10 09:59:32,TRUE,2014-11-01,1000,NA,NA,NA,NA,NA,"F","AN MARIA RDONE",NA,"AN MARIA",NA,NA,NA,"AN MARIA",NA,"47.78A",NA,NA,NA,NA,16,2017-05-20 04:21:26,"PME",2019,NA,"BROU",NA,NA,NA,NA,NA,"24 ALL DES ALOUETTE 28160",NA,7775,NA,NA,NA,NA,NA,NA,NA,NA,NA,NA
"79","535","28061","Brou","Brou",11,"24","Centre-Val de Loire","28","61","Brou",3440,48.2174479455,1.15740318839,805166774,10,8.05167e+13,2014-10-25,NA,2015-06-11 00:10:25,TRUE,2014-10-25,1000,NA,NA,NA,NA,NA,"M","ANDORFI TAM S",NA,"TAM S",NA,NA,NA,"TAM S",NA,"47.78A",NA,NA,NA,NA,10,2017-05-20 04:21:48,"PME",2019,NA,"BROU",NA,NA,NA,NA,NA,"ALL DES ALOUETTE 28160",NA,7775,NA,NA,NA,NA,NA,NA,NA,NA,NA,NA
"80","578","56034","Carnac","Carnac",11,"53","Bretagne","56","34","Carnac",4374,47.608433163,-3.06973611145,394926125,45,3.94926e+13,2004-07-01,2019,2021-10-27 08:23:01,TRUE,1994-04-01,1000,NA,NA,"SEA AND SUN",NA,NA,"F","LHOTELLIER","SOUAMY","MARY",NA,NA,NA,"MARY",NA,"47.78A",NA,NA,"1",2019,45,2021-10-27 08:23:01,"PME",2019,NA,"CARC",NA,"SEA AND SUN",NA,NA,NA,"17 AV MILN 56340",NA,6582,NA,0,0,0,0,0,NA,0,"44317",NA
"81","578","56034","Carnac","Carnac",11,"53","Bretagne","56","34","Carnac",4374,47.608433163,-3.06973611145,522561752,18,5.22562e+13,2010-05-06,2019,2021-10-27 08:30:04,TRUE,2010-05-06,5499,"CARC VISION",NA,"CARC VISION PLUS",NA,NA,NA,NA,NA,NA,NA,NA,NA,NA,NA,"47.78A",NA,NA,"2",2019,18,2021-10-27 08:30:04,"PME",2019,NA,"CARC",NA,NA,NA,NA,NA,"1 RUE DES TUMULUS 56340",NA,6582,NA,1,0,1,1,0,NA,0,"42856","https://www.ot-carnac.fr/preparer/idees-sorties/shopping-et-commerces"
"82","656","56124","Malestroit","Malestroit",11,"53","Bretagne","56","124","Malestroit",2533,47.8076863788,-2.38701072581,419753009,10,4.19753e+13,1998-06-11,2019,2021-10-27 08:41:04,TRUE,1998-06-11,5499,"OPTI-MIST",NA,NA,NA,NA,NA,NA,NA,NA,NA,NA,NA,NA,NA,"47.78A",NA,"N","3",2019,10,2021-10-27 08:41:04,"PME",2019,NA,"MALESTROIT",NA,"OPTICIENS KRYS MALESTROIT",NA,NA,NA,"8 PL DU DR QUEINNEC 56140",NA,4079,"krys",0,0,0,0,0,NA,1,"44621",NA
"83","656","56124","Malestroit","Malestroit",11,"53","Bretagne","56","124","Malestroit",2533,47.8076863788,-2.38701072581,419753009,28,4.19753e+13,2009-09-15,2019,2021-10-27 08:41:04,FALSE,1998-06-11,5499,"OPTI-MIST",NA,NA,NA,NA,NA,NA,NA,NA,NA,NA,NA,NA,NA,"47.78A",NA,"N","3",2019,10,2021-10-27 08:41:04,"PME",2019,NA,"MALESTROIT",NA,"OPTICIENS VISION PLUS MALESTROIT",NA,NA,NA,"17 T PL DU DOCTEUR QUEINNEC 56140",NA,4079,NA,1,0,0,0,1,NA,0,"44136",NA
"84","527","57177","Dieuze","Dieuze",11,"44","Grand Est","57","177","Dieuze",3137,48.8077845102,6.71733647603,420086365,12,4.20086e+13,1998-04-01,2019,2021-10-27 08:00:37,TRUE,1998-04-01,1000,NA,NA,"NEW OPTIC",NA,NA,"M","GRAND",NA,"PATRICK",NA,NA,NA,"PATRICK",NA,"47.78A",NA,NA,"1",2019,12,2021-10-27 08:00:37,"PME",2019,NA,"DIEUZE",NA,NA,NA,NA,NA,"18 AV DU GENERAL DE GAULLE 57260",NA,8310,NA,0,0,0,0,0,NA,0,"44197",NA
"85","519","47052","Casteljaloux","Casteljaloux",11,"75","Nouvelle-Aquitaine","47","52","Casteljaloux",4636,44.3114746788,0.0845386197153,491921987,13,4.91922e+13,2006-09-11,2018,2020-08-25 10:37:07,TRUE,2006-09-11,5499,"SARL OPTIQUE BENOIT ALARY",NA,NA,NA,NA,NA,NA,NA,NA,NA,NA,NA,NA,NA,"47.78A",NA,NA,"0",2018,13,2020-08-25 10:37:07,"PME",2019,NA,"CASTELJALOUX",NA,NA,NA,NA,NA,"60 RUE GRAND RUE 47700",NA,8380,NA,0,0,0,0,0,NA,0,"44287",NA
"86","519","47052","Casteljaloux","Casteljaloux",11,"75","Nouvelle-Aquitaine","47","52","Casteljaloux",4636,44.3114746788,0.0845386197153,803752641,16,8.03753e+13,2014-07-28,2019,2021-10-27 09:11:01,TRUE,2014-07-28,5710,"ALLONS VOIR NOTRE OPTICIEN",NA,NA,NA,NA,NA,NA,NA,NA,NA,NA,NA,NA,NA,"47.78A",NA,NA,"2",2019,16,2021-10-27 09:11:01,"PME",2019,NA,"CASTELJALOUX",NA,"ALLONS VOIR",NA,NA,"ALLONS VOIR","63 RUE GRAND RUE 47700",NA,8380,NA,0,0,0,0,0,NA,0,"44287","https://www.facebook.com/opticienscasteljalouxallonsvoir/"
"87","668","22362","Tréguier","Tréguier",11,"53","Bretagne","22","362","Tréguier",2695,48.7850465816,-3.23178776538,422600643,15,4.22601e+13,1999-03-15,2019,2021-10-27 08:03:58,TRUE,1999-03-15,5499,"MAS OPTIQUE",NA,"GUILLOU OPTICIENS",NA,NA,NA,NA,NA,NA,NA,NA,NA,NA,NA,"47.78A",NA,NA,"2",2019,15,2021-10-27 08:03:58,"PME",2019,NA,"TREGUIER",NA,NA,NA,NA,NA,"2 RUE ST ANDRE 22220",NA,3789,"krys",0,0,0,0,0,NA,0,"44440","https://www.krys.com/opticien/france/cotes-d-armor/opticien-treguier/treguier-standre"
"88","636","53107","Gorron","Gorron",11,"52","Pays de la Loire","53","107","Gorron",2615,48.4219397405,-0.8016203216,422749069,49,4.22749e+13,2003-11-01,2019,2021-10-27 08:04:09,FALSE,1999-04-26,5710,"OPTIQUE DU BOCAGE",NA,NA,NA,NA,NA,NA,NA,NA,NA,NA,NA,NA,NA,"47.78A",NA,"N","11",2019,72,2021-10-27 08:04:09,"PME",2019,NA,"GORRON",NA,NA,NA,NA,NA,"21 RUE MAGENTA 53120",NA,4824,"lissac",1,0,1,1,1,NA,0,"44136","http://www.lissac-opticien-gorron.gbsavac.com/"
"89","664","40075","Castets","Castets",11,"75","Nouvelle-Aquitaine","40","75","Castets",2414,43.87403966,-1.14528108058,484349972,22,4.8435e+13,2020-06-10,NA,2021-02-23 13:49:36,TRUE,2005-11-03,1000,NA,NA,"L'OPTICIENNE",NA,NA,"F","COHEN","ABRAHAMS","ISABELLE",NA,NA,NA,"ISABELLE",NA,"47.78A",NA,NA,"NN",NA,22,2021-01-05 09:04:31,"PME",2019,"MAISON DE LA SANTE","CASTETS",NA,NA,NA,NA,"L'OPTICIENNE","143 RUE SAINTE HELENE 40260",NA,3928,NA,0,0,1,1,1,NA,0,"44470",NA
"90","549","83036","Cavalaire-sur-Mer","Cavalaire-sur-Mer",11,"93","Provence-Alpes-Côte d'Azur","83","36","Cavalaire-sur-Mer",7469,43.1819055812,6.52121721395,451273833,33,4.51274e+13,2006-01-16,NA,2019-11-14 14:01:02,FALSE,2004-01-01,1000,NA,NA,"OPTIQUE ARFEUILLERE",NA,NA,"F","TORRESSAN","ARFEUILLERE","NICOLE",NA,NA,NA,"NICOLE",NA,"47.78A",NA,NA,"NN",NA,25,2017-05-20 07:59:17,"PME",2019,NA,"CAVALAIRE-SUR-MER",NA,"ATOL",NA,NA,NA,"234 AV DES ALLIES 83240",NA,7469,NA,NA,NA,NA,NA,NA,NA,NA,NA,NA
"91","674","62770","Saint-Venant","Saint-Venant",11,"32","Hauts-de-France","62","770","Saint-Venant",3112,50.6225931834,2.52541265716,428830533,17,4.28831e+13,2000-01-15,2019,2021-10-27 08:08:09,TRUE,2000-01-15,5499,"OPTIC DE LA LYS",NA,NA,NA,NA,NA,NA,NA,NA,NA,NA,NA,NA,NA,"47.78A",NA,"N","1",2019,17,2021-10-27 08:08:09,"PME",2019,NA,"SAINT-VENT",NA,NA,NA,NA,NA,"38 RUE DE PARIS 62350",NA,3112,NA,0,0,0,0,0,NA,0,"39965","https://opticdelalys-saintvenant.monopticien.com/"
"92","549","83036","Cavalaire-sur-Mer","Cavalaire-sur-Mer",11,"93","Provence-Alpes-Côte d'Azur","83","36","Cavalaire-sur-Mer",7469,43.1819055812,6.52121721395,497674333,16,4.97674e+13,2007-04-25,2019,2021-10-27 08:35:46,TRUE,2007-04-25,5499,"ACADIANE",NA,"OPTIQUE DIANE MOINE",NA,NA,NA,NA,NA,NA,NA,NA,NA,NA,NA,"47.78A",NA,NA,"1",2019,16,2021-10-27 08:35:46,"PME",2019,NA,"CAVALAIRE-SUR-MER",NA,NA,NA,NA,NA,"234 AV DES ALLIES 83240",NA,7469,"atol",0,0,0,0,0,NA,0,"44378","https://www.opticiens-atol.com/opticiens/cavalaire-sur-mer-270-avenue-des-allies?utm_source=Yext&utm_medium=GMB&y_source=1_MTUwOTU1ODItNzE1LWxvY2F0aW9uLndlYnNpdGU%3D"
"93","549","83036","Cavalaire-sur-Mer","Cavalaire-sur-Mer",11,"93","Provence-Alpes-Côte d'Azur","83","36","Cavalaire-sur-Mer",7469,43.1819055812,6.52121721395,789224185,23,7.89224e+13,2012-11-06,2019,2021-10-27 08:57:31,FALSE,2012-11-06,5499,"OPTIC MG SUD",NA,NA,NA,NA,NA,NA,NA,NA,NA,NA,NA,NA,NA,"47.78A",NA,"N","2",2019,15,2021-12-07 12:52:07,"PME",2019,NA,"CAVALAIRE-SUR-MER",NA,NA,NA,NA,NA,"AV DES ALLIES 83240",NA,7469,"optic 2000",0,1,0,0,0,NA,0,"43252",NA
"94","490","66049","Céret","Céret",11,"76","Occitanie","66","49","Céret",8026,42.4739622057,2.75268021455,318827334,18,3.18827e+13,1980-04-01,2019,2021-10-27 08:20:55,TRUE,1980-04-01,5499,"EURL OPTIC 2000 CERET",NA,"OPTIC 2000",NA,NA,NA,NA,NA,NA,NA,NA,NA,NA,NA,"47.78A",NA,"N","2",2019,18,2021-10-27 08:20:55,"PME",2019,"11 ET 13","CERET",NA,NA,NA,NA,NA,"11 BD MAL JOFFRE 66400",NA,9480,"optic 2000",1,1,0,1,1,NA,0,"44682","https://opticiens.optic2000.com/opticien-ceret-66400-383"
"95","554","28214","La Loupe","La Loupe",11,"24","Centre-Val de Loire","28","214","La Loupe",3425,48.473175806,1.02235330632,431741032,38,4.31741e+13,2004-06-01,2019,2021-10-27 08:10:55,FALSE,2000-04-01,5710,"OPTIQUE PIGEARD",NA,NA,NA,NA,NA,NA,NA,NA,NA,NA,NA,NA,NA,"47.78A",NA,"N","11",2019,53,2021-10-27 08:10:55,"PME",2019,NA,"LA LOUPE",NA,NA,NA,NA,NA,"10 PL DE L HOTEL DE VILLE 28240",NA,7460,NA,1,1,1,0,1,NA,0,"44652","https://pigeard-opticiens.fr/"
"96","490","66049","Céret","Céret",11,"76","Occitanie","66","49","Céret",8026,42.4739622057,2.75268021455,478886062,15,4.78886e+13,2004-10-01,2019,2021-10-27 08:13:45,TRUE,2004-10-01,5499,"ERRE",NA,NA,NA,NA,NA,NA,NA,NA,NA,NA,NA,NA,NA,"47.78A",NA,"N","2",2019,15,2021-10-27 08:13:45,"PME",2019,NA,"CERET",NA,NA,NA,NA,NA,"25 RUE SAINT FERREOL 66400",NA,9480,"atol",0,0,0,0,0,NA,0,"44197","https://www.opticiens-atol.com/opticiens/ceret-25-rue-saint-ferreol?utm_source=Yext&utm_medium=GMB&y_source=1_MTUwOTU3MzctNzE1LWxvY2F0aW9uLndlYnNpdGU%3D"
"97","634","79062","Cerizay","Cerizay",11,"75","Nouvelle-Aquitaine","79","62","Cerizay",4840,46.8217311036,-0.672469385521,431574664,22,4.31575e+13,2000-07-01,2019,2021-10-27 08:10:43,FALSE,2000-05-17,5499,"SARL AMJ",NA,"OPTIC 2000",NA,NA,NA,NA,NA,NA,NA,NA,NA,NA,NA,"47.78A",NA,"N","2",2019,14,2021-10-27 08:10:43,"PME",2019,"CENTRE COMMER SUPER U","CERIZAY",NA,NA,NA,NA,NA,"BD POMPIDOU 79140",NA,4840,"optic 2000",1,0,1,0,1,NA,0,"44682","https://opticiens.optic2000.com/opticien-cerizay-79140-912"
"98","661","40313","Tartas","Tartas",11,"75","Nouvelle-Aquitaine","40","313","Tartas",3304,43.8182878693,-0.782895218669,432189389,13,4.32189e+13,2000-06-01,2019,2021-10-27 08:11:29,TRUE,2000-06-01,5499,"OPTIQUE D ALBRET",NA,NA,NA,NA,NA,NA,NA,NA,NA,NA,NA,NA,NA,"47.78A",NA,NA,"1",2019,13,2021-10-27 08:11:29,"PME",2019,NA,"TARTAS",NA,NA,NA,NA,NA,"42 RUE DU GENERAL DE GAULLE 40400",NA,3964,NA,0,0,0,0,0,NA,1,"44531","https://lesopticiensdeproximite.fr/"
"99","551","56091","Josselin","Josselin",11,"53","Bretagne","56","91","Josselin",2590,47.9544411983,-2.54877600621,432279693,35,4.3228e+13,2012-10-24,2019,2021-10-27 08:11:36,TRUE,2000-07-06,5499,"OPTIQUE TOUZE",NA,"JOSSELIN OPTIQUE",NA,NA,NA,NA,NA,NA,NA,NA,NA,NA,NA,"47.78A",NA,NA,"1",2019,35,2021-10-27 08:11:36,"PME",2019,"ZONE COMMERCIALE OXYGENE, BELLEVUE","JOSSELIN",NA,"JOSSELIN OPTIQUE",NA,NA,"JOSSELIN OPTIQUE","GALERIE COMMERCIALE SUPER U 56120",NA,7512,"vision plus",0,0,0,0,0,NA,1,"44105","https://www.lecollectifdeslunetiers.fr/opticien/france/morbihan/opticien-josselin/josselin-touze"
"100","552","88090","Charmes","Charmes",11,"44","Grand Est","88","90","Charmes",4742,48.3848071988,6.31788990054,402480297,33,4.0248e+13,2011-11-30,NA,2018-09-29 12:29:16,FALSE,1995-10-01,5499,"OPTIQUE TOURBIER",NA,"COMPTOIR SCIENTIFIQUE & MEDICAL DE L'EST",NA,NA,NA,NA,NA,NA,NA,NA,NA,NA,NA,"47.78A",NA,NA,"3",2019,17,2021-10-27 08:28:45,"PME",2019,NA,"CHARMES",NA,NA,NA,NA,NA,"22 PL HENRI BRETON 88130",NA,7328,"krys",1,1,1,1,1,NA,1,"44348","https://www.krys.com/opticien/france/vosges/opticien-charmes/charmes-ville#healthinsurance"
"101","542","24551","Thiviers","Thiviers",11,"75","Nouvelle-Aquitaine","24","551","Thiviers",3033,45.4286304056,0.912184321254,434901476,37,4.34901e+13,2016-09-01,2019,2021-10-27 08:15:31,FALSE,2001-03-05,5499,"AREDIUS",NA,NA,NA,NA,NA,NA,NA,NA,NA,NA,NA,NA,NA,"64.20Z",NA,NA,"2",2019,11,2021-10-27 08:15:31,"PME",2019,NA,"THIVIERS",NA,"ATOL LES OPTICIENS",NA,NA,NA,"2 RUE DE LA TOUR 24800",NA,7704,"atol",0,0,0,0,0,NA,0,"43709","https://www.opticiens-atol.com/opticiens/thiviers-2-rue-de-la-tour?utm_source=Yext&utm_medium=GMB&y_source=1_MTUwOTU0NDEtNzE1LWxvY2F0aW9uLndlYnNpdGU%3D"
"102","650","59580","Steenvoorde","Steenvoorde",11,"32","Hauts-de-France","59","580","Steenvoorde",4452,50.8214340622,2.58556642469,434983391,13,4.34983e+13,2001-05-01,2019,2021-10-27 08:15:37,TRUE,2001-05-01,5499,"OPTIBAL",NA,"OPTIC 2000",NA,NA,NA,NA,NA,NA,NA,NA,NA,NA,NA,"47.78A",NA,NA,"1",2019,13,2021-10-27 08:15:37,"PME",2019,NA,"STEENVOORDE",NA,NA,NA,NA,NA,"25  GRAND PLACE NORBERT SEGARD 59114",NA,4452,"optic 2000",1,1,1,1,1,NA,0,"44317","https://opticiens.optic2000.com/opticien-steenvoorde-59114-1010"
"103","527","57177","Dieuze","Dieuze",11,"44","Grand Est","57","177","Dieuze",3137,48.8077845102,6.71733647603,437646136,55,4.37646e+13,2013-01-01,2019,2021-10-27 08:16:27,FALSE,2001-05-01,5499,"GRAND OPTICIENS",NA,NA,NA,NA,NA,NA,NA,NA,NA,NA,NA,NA,NA,"47.78A",NA,NA,"1",2019,14,2021-10-27 08:16:27,"PME",2019,NA,"DIEUZE",NA,"EUROPTIC",NA,NA,NA,"3 PL DU MARCHE 57260",NA,8310,NA,NA,NA,NA,NA,NA,NA,NA,NA,NA
"104","552","88090","Charmes","Charmes",11,"44","Grand Est","88","90","Charmes",4742,48.3848071988,6.31788990054,487721482,15,4.87721e+13,2005-12-20,2019,2021-10-27 08:24:10,TRUE,2005-12-20,5499,"SARL OPTIQUE PALUSINSKI",NA,"OPTIQUE MEDICALE PALUSINSKI",NA,NA,NA,NA,NA,NA,NA,NA,NA,NA,NA,"47.78A",NA,"N","2",2019,15,2021-10-27 08:24:10,"PME",2019,NA,"CHARMES",NA,NA,NA,NA,NA,"2 RUE DES CAPUCINS 88130",NA,7328,NA,0,0,0,0,0,NA,0,"44348",NA
"105","552","88090","Charmes","Charmes",11,"44","Grand Est","88","90","Charmes",4742,48.3848071988,6.31788990054,511309650,22,5.1131e+13,2010-04-01,2019,2021-10-27 08:17:39,TRUE,2009-03-12,5499,"SIA",NA,"FOVEA OPTIQUE",NA,NA,NA,NA,NA,NA,NA,NA,NA,NA,NA,"47.78A",NA,NA,"1",2019,22,2021-10-27 08:17:39,"PME",2019,"CENTRE COMMERCIAL","CHARMES",NA,NA,NA,NA,NA,"JARDINS DE L HERMITAGE 88130",NA,7328,NA,NA,NA,NA,NA,NA,NA,NA,NA,NA
"106","633","39500","Salins-les-Bains","Salins-les-Bains",11,"27","Bourgogne-Franche-Comté","39","500","Salins-les-Bains",2736,46.9478351925,5.89762240995,438273096,18,4.38273e+13,2001-07-01,2019,2021-10-27 08:17:16,TRUE,2001-07-01,5710,"AUBERT GISCARD 2",NA,"OPTIQUE ACOUSTIQUE DES SALINES",NA,NA,NA,NA,NA,NA,NA,NA,NA,NA,NA,"47.78A",NA,"N","1",2019,18,2021-10-27 08:17:16,"PME",2019,NA,"SALINS-LES-BAINS",NA,"OPTIQUE ACOUSTIQUE DES SALINES",NA,NA,NA,"21 B RUE DE LA REPUBLIQUE 39110",NA,5003,"vision plus",0,0,0,0,0,NA,1,"44440","https://www.lecollectifdeslunetiers.fr/opticien/france/jura/opticien-salins-les-bains/slb-salines"
"107","491","62080","Bapaume","Bapaume",11,"32","Hauts-de-France","62","80","Bapaume",4202,50.1013647974,2.85501640622,439302761,10,4.39303e+13,2001-10-01,2019,2021-11-06 14:28:21,TRUE,2001-10-01,5710,"SOCIETE DANGUY",NA,"OPTIQUE 2000 DANGUY",NA,NA,NA,NA,NA,NA,NA,NA,NA,NA,NA,"47.78A",NA,"N","2",2019,10,2021-11-06 14:28:21,"PME",2019,NA,"BAPAUME",NA,NA,NA,NA,NA,"16 RUE DE PERONNE 62450",NA,9617,"optic 2000",1,0,1,1,1,NA,0,"44683","https://opticiens.optic2000.com/opticien-bapaume-62450-1178"
"108","532","71120","Chauffailles","Chauffailles",11,"27","Bourgogne-Franche-Comté","71","120","Chauffailles",3777,46.2065828065,4.34173989083,443737978,25,4.43738e+13,2007-11-02,2019,2021-10-27 08:24:36,FALSE,2002-10-08,5499,"HAACK OPTICIENS",NA,"VISUAL HAACK OPTICIENS",NA,NA,NA,NA,NA,NA,NA,NA,NA,NA,NA,"47.78A",NA,"N","3",2019,17,2021-10-27 08:24:36,"PME",2019,NA,"CHAUFFAILLES",NA,"HAACK OPTICIENS",NA,NA,NA,"1 PL DE LA REPUBLIQUE 71170",NA,7897,"grandoptical",1,0,0,0,1,NA,0,"44287","https://www.grandoptical.com/opticien/l/chauffailles/1-place-de-la-republique/1800620?utm_medium=gmb&utm_source=gmb_lien_web"
"109","532","71120","Chauffailles","Chauffailles",11,"27","Bourgogne-Franche-Comté","71","120","Chauffailles",3777,46.2065828065,4.34173989083,483153540,16,4.83154e+13,2005-06-10,2019,2021-10-27 08:20:20,TRUE,2005-06-10,5499,"SARL CHAUFFAILLES OPTIQUE",NA,NA,NA,NA,NA,NA,NA,NA,NA,NA,NA,NA,NA,"47.78A",NA,"N","1",2019,16,2021-10-27 08:20:19,"PME",2019,NA,"CHAUFFAILLES",NA,"CHAUFFAILLES OPTIQUE",NA,NA,NA,"16 RUE CENTRALE 71170",NA,7897,NA,0,0,NA,0,0,NA,1,"43132","https://www.facebook.com/Opticienindependant/"
"110","596","42059","Chazelles-sur-Lyon","Chazelles-sur-Lyon",11,"84","Auvergne-Rhône-Alpes","42","59","Chazelles-sur-Lyon",5454,45.6292859414,4.37386809116,824786743,16,8.24787e+13,2017-01-06,2019,2021-10-27 09:30:47,TRUE,2017-01-06,5499,"SARL OPTIQUE CHAZELLES",NA,NA,NA,NA,NA,NA,NA,NA,NA,NA,NA,NA,NA,"47.78A",NA,NA,"1",2019,16,2021-10-27 09:30:47,"PME",2019,NA,"CHAZELLES-SUR-LYON",NA,"OPTIQUE JUST'UN REGARD",NA,NA,"OPTICIEN JUST'UN REGARD","19 RUE ALEXANDRE SEON 42140",NA,5932,NA,0,0,0,0,0,NA,0,"43678","https://justunregard.com/magasins/opticien-chazelles-sur-lyon/"
"111","596","42059","Chazelles-sur-Lyon","Chazelles-sur-Lyon",11,"84","Auvergne-Rhône-Alpes","42","59","Chazelles-sur-Lyon",5454,45.6292859414,4.37386809116,853805364,17,8.53805e+13,2019-09-12,2019,2021-10-27 09:50:14,TRUE,2019-09-12,5710,"SAS OPTIQUE MARTIN",NA,NA,NA,NA,NA,NA,NA,NA,NA,NA,NA,NA,NA,"47.78A",NA,"N","1",2019,17,2021-10-27 09:50:14,"PME",2019,NA,"CHAZELLES-SUR-LYON",NA,"OPTIQUE POUVOIR",NA,NA,NA,"20 PL DE LA POTERNE 42140",NA,5932,NA,NA,NA,NA,NA,NA,NA,NA,NA,NA
"112","529","31144","Cierp-Gaud","Bagnères-de-Luchon",20,"76","Occitanie","31","144","Cierp-Gaud",746,42.9126857929,0.634654016295,837477744,10,8.37478e+13,2018-02-09,2019,2021-10-27 09:39:56,TRUE,2018-02-09,5710,"OUARMIN OPTICIEN",NA,NA,NA,NA,NA,NA,NA,NA,NA,NA,NA,NA,NA,"47.78A",NA,"N","1",2019,10,2021-10-27 09:39:56,"PME",2019,NA,"CIERP-GAUD",NA,"OPTIQUE CIERP-GAUD",NA,NA,"OUARMIN OPTICIEN","RUE DES PRADETTES 31440",NA,8227,NA,NA,NA,NA,NA,NA,NA,NA,NA,NA
"113","506","46128","Gramat","Gramat",11,"76","Occitanie","46","128","Gramat",3593,44.7635603644,1.71620459363,442612594,22,4.42613e+13,2009-03-20,2019,2021-10-27 08:23:07,TRUE,2002-06-17,5499,"SARL GRAMAT OPTIQUE",NA,NA,NA,NA,NA,NA,NA,NA,NA,NA,NA,NA,NA,"47.78A",NA,NA,"1",2019,22,2021-10-27 08:23:07,"PME",2019,NA,"GRAMAT",NA,NA,NA,NA,NA,"21 PL DE LA HALLE 46500",NA,8786,"vision plus",0,1,0,0,0,NA,0,"43374","https://www.lecollectifdeslunetiers.fr/opticien/france/lot/opticien-gramat/gramat-pldelahalle"
"114","507","14174","Condé-en-Normandie","Condé-en-Normandie",11,"28","Normandie","14","174","Condé-en-Normandie",6912,48.8496985115,-0.562504676497,385212907,39,3.85213e+13,1992-04-01,NA,2008-01-04 22:51:30,FALSE,1992-04-01,5499,"SARL LE MENN",NA,NA,NA,NA,NA,NA,NA,NA,NA,NA,NA,NA,NA,"47.78A",NA,"N","2",2019,21,2021-10-27 08:14:12,"PME",2019,NA,"CONDE-EN-NORMANDIE",NA,NA,NA,NA,NA,"11 RUE DU VIEUX CHATEAU 14110",NA,8866,"krys",1,0,1,0,1,NA,0,"44075","https://www.krys.com/opticien/france/calvados/opticien-conde-sur-noireau/lemenn-conde"
"115","574","72269","Saint-Calais","Saint-Calais",11,"52","Pays de la Loire","72","269","Saint-Calais",3431,47.9250578354,0.747660967628,443424528,18,4.43425e+13,2002-08-28,2019,2021-10-27 08:24:12,TRUE,2002-08-28,5499,"OPTIQUE DU DAUPHIN",NA,"VISION PLUS",NA,NA,NA,NA,NA,NA,NA,NA,NA,NA,NA,"47.78A",NA,NA,"1",2019,18,2021-10-27 08:24:12,"PME",2019,NA,"SAINT-CALAIS",NA,NA,NA,NA,NA,"10 RUE DU DAUPHIN 72120",NA,6747,"vision plus",0,0,0,0,0,NA,0,"43221","https://www.lecollectifdeslunetiers.fr/opticien/france/sarthe/opticien-saint-calais/stcalais-72"
"116","507","14174","Condé-en-Normandie","Condé-en-Normandie",11,"28","Normandie","14","174","Condé-en-Normandie",6912,48.8496985115,-0.562504676497,444140230,12,4.4414e+13,2002-10-24,2019,2021-10-27 08:25:05,TRUE,2002-10-24,5499,"MARTHU",NA,"OPTIQUE LEROYER",NA,NA,NA,NA,NA,NA,NA,NA,NA,NA,NA,"47.78A",NA,NA,"2",2019,12,2021-10-27 08:25:05,"PME",2019,"CONDE-SUR-NOIREAU","CONDE-EN-NORMANDIE",NA,NA,NA,NA,NA,"6 RPT DE LA VICTOIRE 14110",NA,8866,"atol",1,0,1,1,0,NA,0,"43525","https://www.opticiens-atol.com/opticiens/conde-sur-noireau-6-rond-point-de-la-victoire?utm_source=Yext&utm_medium=GMB&y_source=1_MTUwOTU1OTktNzE1LWxvY2F0aW9uLndlYnNpdGU%3D"
"117","507","14174","Condé-en-Normandie","Condé-en-Normandie",11,"28","Normandie","14","174","Condé-en-Normandie",6912,48.8496985115,-0.562504676497,794994277,539,7.94994e+13,2014-01-01,2019,2021-10-27 09:03:44,FALSE,2013-07-02,8210,"MUTUALITE FRANCAISE NORMANDE SSAM","MEN-SSAM",NA,NA,NA,NA,NA,NA,NA,NA,NA,NA,NA,NA,"65.12Z",NA,"O","42",2019,18,2022-03-14 09:13:33,"ETI",2019,NA,"CONDE-EN-NORMANDIE",NA,NA,NA,NA,NA,"1 RUE DU VIEUX CHATEAU 14110",NA,8866,"ecouter voir",1,0,1,0,0,NA,0,"44136","https://www.ecoutervoir.fr/?utm_source=gmb"
"118","591","69066","Cours","Cours",11,"84","Auvergne-Rhône-Alpes","69","66","Cours",4529,46.1087135793,4.33699431774,775602436,997,7.75602e+13,2018-07-01,NA,2020-02-21 12:32:04,FALSE,1900-01-01,8210,"MUTUALITE FRANCAISE LOIRE-HAUTE LOIRE-PUY DE DOME","SSAM",NA,NA,NA,NA,NA,NA,NA,NA,NA,NA,NA,NA,"65.12Z",NA,"O","42",2019,39,2022-03-11 14:52:25,"ETI",2019,NA,"COURS",NA,"ECOUTER VOIR OPTIQUE",NA,NA,NA,"143 RUE GEORGES CLEMENCEAU 69470",NA,6184,"ecouter voir",1,0,1,1,1,NA,0,"44682","https://www.ecoutervoir.fr/trouver-un-magasin/cours-la-ville"
"119","498","53084","Craon","Craon",11,"52","Pays de la Loire","53","84","Craon",4685,47.8454412251,-0.943066490216,413287434,18,4.13287e+13,1997-09-01,2019,2021-10-27 08:36:40,TRUE,1997-09-01,5499,"CRAON OPTIQUE",NA,NA,NA,NA,NA,NA,NA,NA,NA,NA,NA,NA,NA,"47.78A",NA,NA,"1",2019,18,2021-10-27 08:36:40,"PME",2019,NA,"CRAON",NA,NA,NA,NA,NA,"1 RUE DES HALLES 53400",NA,9002,NA,0,0,0,0,1,NA,0,"44470","https://www.craonoptique.com/"
"120","498","53084","Craon","Craon",11,"52","Pays de la Loire","53","84","Craon",4685,47.8454412251,-0.943066490216,422749069,98,4.22749e+13,2007-01-01,2019,2021-10-27 08:04:09,FALSE,1999-04-26,5710,"OPTIQUE DU BOCAGE",NA,NA,NA,NA,NA,NA,NA,NA,NA,NA,NA,NA,NA,"47.78A",NA,"N","11",2019,72,2021-10-27 08:04:09,"PME",2019,NA,"CRAON",NA,"ATOL",NA,NA,NA,"14 RUE NEUVE 53400",NA,9002,"lissac",1,0,1,1,1,NA,1,"44470","https://www.lissac.fr/magasin/craon?utm_source=Google_Maps"
"121","534","10123","Dienville","Brienne-le-Château",20,"44","Grand Est","10","123","Dienville",897,48.3297297619,4.5139323628,813125119,20,8.13125e+13,2016-06-01,NA,2017-04-06 14:26:52,TRUE,2016-06-01,5499,"OPTIC&TOC",NA,NA,NA,NA,NA,NA,NA,NA,NA,NA,NA,NA,NA,"47.78A",NA,NA,NA,NA,20,2020-07-09 12:21:50,"PME",2019,NA,"DIENVILLE",NA,NA,NA,NA,NA,"4  AVENUE PAUL GIRARD 10500",NA,7824,NA,NA,NA,NA,NA,NA,NA,NA,NA,NA
"122","499","19073","Égletons","Égletons",11,"75","Nouvelle-Aquitaine","19","73","Égletons",5086,45.4216623668,2.03629867165,830511622,29,8.30512e+13,2017-07-10,2019,2021-10-27 09:34:59,FALSE,2017-06-26,5710,"OPTIC EGLETOISE",NA,NA,NA,NA,NA,NA,NA,NA,NA,NA,NA,NA,NA,"47.78A",NA,"N","2",2019,45,2021-10-27 09:34:59,"PME",2019,"CENTRE CCIAL SUPER U","EGLETONS",NA,"LUNETTERIE CORREZIENNE",NA,NA,"LUNETTERIE CORREZIENNE","AV CHARLES DE GAULLE 19300",NA,9631,NA,NA,NA,NA,NA,NA,NA,NA,NA,NA
"123","546","43112","Langeac","Langeac",11,"84","Auvergne-Rhône-Alpes","43","112","Langeac",3742,45.0822541836,3.47806203807,449164755,26,4.49165e+13,2006-06-18,2019,2021-10-27 08:03:48,TRUE,2003-06-12,5499,"LANGEAC OPTIQUE",NA,NA,NA,NA,NA,NA,NA,NA,NA,NA,NA,NA,NA,"47.78A",NA,NA,"1",2019,26,2021-10-27 08:03:48,"PME",2019,NA,"LANGEAC",NA,NA,NA,NA,NA,"3 PL ARISTIDE BRIAND 43300",NA,7592,NA,0,0,0,0,0,NA,0,"41395",NA
"124","499","19073","Égletons","Égletons",11,"75","Nouvelle-Aquitaine","19","73","Égletons",5086,45.4216623668,2.03629867165,830511622,52,8.30512e+13,2020-02-28,NA,2020-07-29 10:06:02,FALSE,2017-06-26,5710,"OPTIC EGLETOISE",NA,NA,NA,NA,NA,NA,NA,NA,NA,NA,NA,NA,NA,"47.78A",NA,"N","2",2019,45,2021-10-27 09:34:59,"PME",2019,NA,"EGLETONS",NA,NA,NA,NA,NA,"63 AV CHARLES DE GAULLE 19300",NA,9631,NA,0,0,0,0,0,NA,1,"44317",NA
"125","528","12096","Espalion","Espalion",11,"76","Occitanie","12","96","Espalion",4643,44.5188717043,2.76426608276,301712626,102,3.01713e+13,2003-01-02,2019,2021-10-27 08:14:07,FALSE,1974-01-01,5710,"OPTIQUE DUBOR",NA,NA,NA,NA,NA,NA,NA,NA,NA,NA,NA,NA,NA,"47.78A",NA,"N","12",2019,177,2021-11-27 04:03:59,"PME",2019,NA,"ESPALION",NA,"DUBOR OPTICIENS KRYS",NA,NA,NA,"23 BD JOSEPH POULENC 12500",NA,8178,"krys",NA,NA,NA,NA,NA,NA,1,NA,"https://www.krys.com/opticien/france/aveyron/opticien-espalion/espalion-poulenc"
"126","528","12096","Espalion","Espalion",11,"76","Occitanie","12","96","Espalion",4643,44.5188717043,2.76426608276,442491197,533,4.42491e+13,2016-03-01,2019,2021-10-27 08:22:58,FALSE,2002-01-15,8210,"UDSMA MUTUALITE FRANCAISE AVEYRON","UDSMA UMFRSS",NA,NA,NA,NA,NA,NA,NA,NA,NA,NA,NA,NA,"47.74Z",NA,"O","32",2019,673,2022-03-09 10:43:05,"ETI",2019,"ZA DE LA BOUYSSE","ESPALION",NA,NA,NA,NA,NA,"AV D ESTAING 12500",NA,8178,"ecouter voir",1,1,1,0,1,NA,1,"44682","https://www.ecoutervoir.fr/trouver-un-magasin/espalion"
"127","500","39434","Poligny","Poligny",11,"27","Bourgogne-Franche-Comté","39","434","Poligny",4454,46.8222386118,5.73292565089,451204036,29,4.51204e+13,2004-01-05,2019,2021-10-27 08:06:55,FALSE,2004-01-05,5710,"OPTIQUE CHANTRANS",NA,"OPTIQUE VISION",NA,NA,NA,NA,NA,NA,NA,NA,NA,NA,NA,"47.78A",NA,NA,"11",2019,11,2021-10-27 08:06:55,"PME",2019,NA,"POLIGNY",NA,"PIERRE KUHNI OPTICIEN",NA,NA,NA,"67  GRANDE RUE 39800",NA,9189,NA,1,0,1,0,0,NA,1,"43525","https://optiquepierrekuhni.fr/magasins/poligny/"
"128","528","12096","Espalion","Espalion",11,"76","Occitanie","12","96","Espalion",4643,44.5188717043,2.76426608276,483016044,16,4.83016e+13,2005-07-19,2019,2021-10-27 08:20:09,TRUE,2005-07-19,1000,NA,NA,"OPTIQUE D'OLT",NA,NA,"M","ROUMIGUIER",NA,"ALEXANDRE",NA,NA,NA,"ALEXANDRE",NA,"47.78A",NA,NA,"1",2019,16,2021-10-27 08:20:09,"PME",2019,"LE COLISEE - BAT B","ESPALION",NA,NA,NA,NA,NA,"9 BD DE GUIZARD 12500",NA,8178,NA,0,0,0,0,0,NA,0,"44470",NA
"129","508","57207","Farébersviller","Farébersviller",11,"44","Grand Est","57","207","Farébersviller",5600,49.1168142079,6.86777677982,808490213,28,8.0849e+13,2018-02-01,2019,2021-10-27 09:14:12,FALSE,2014-12-12,5499,"B'EST OPTIC",NA,NA,NA,NA,NA,NA,NA,NA,NA,NA,NA,NA,NA,"47.78A",NA,"N","1",2019,10,2021-10-27 09:14:12,"PME",2019,NA,"FAREBERSVILLER",NA,"LISSAC",NA,NA,NA,"CENTRE COMMERCIAL B'EST 57450",NA,8630,"lissac",0,0,0,0,0,NA,0,"43831","https://www.lissac.fr/"
"130","508","57207","Farébersviller","Farébersviller",11,"44","Grand Est","57","207","Farébersviller",5600,49.1168142079,6.86777677982,813187655,28,8.13188e+13,2018-02-01,2019,2021-10-27 09:19:49,FALSE,2015-08-25,5499,"FAR-OPTIC",NA,NA,NA,NA,NA,NA,NA,NA,NA,NA,NA,NA,NA,"47.78A",NA,NA,"2",2019,10,2021-10-27 09:19:49,"PME",2019,NA,"FAREBERSVILLER",NA,"OPTIC 2000",NA,NA,NA,"CENTRE COMMERCIAL B'EST 57450",NA,8630,"optic 2000",0,0,0,0,0,NA,0,"43466","https://opticiens.optic2000.com/opticien-farebersvillier-57450-2094"
"131","598","83055","Fayence","Fayence",11,"93","Provence-Alpes-Côte d'Azur","83","55","Fayence",5881,43.6103345822,6.67843279926,451533764,51,4.51534e+13,2021-08-04,NA,2021-10-06 03:37:45,FALSE,2004-02-01,5499,"C2H",NA,NA,NA,NA,NA,NA,NA,NA,NA,NA,NA,NA,NA,"47.78A",NA,"N","2",2019,36,2021-10-27 08:07:29,"PME",2019,"LES ACACIAS","FAYENCE",NA,NA,NA,NA,"FAYENCE OPTIQUE","41 AV ROBERT FABRE 83440",NA,5881,NA,0,0,0,0,0,NA,0,"43252","https://www.monopticien.com/"
"132","604","76276","Forges-les-Eaux","Forges-les-Eaux",11,"28","Normandie","76","276","Forges-les-Eaux",3996,49.6117853364,1.53278752911,390296036,28,3.90296e+13,2002-09-15,NA,2019-11-14 14:00:57,FALSE,1993-02-16,1000,NA,NA,"OPTIQUE BARETTE",NA,NA,"M","BARETTE",NA,"MARC","RENE","ADOLPHE",NA,"MARC",NA,"47.78A",NA,NA,"1",2019,10,2021-10-27 08:18:01,"PME",2019,NA,"FORGES-LES-EAUX",NA,NA,NA,NA,NA,"7 RUE DE LA REPUBLIQUE 76440",NA,5920,NA,0,0,0,0,0,NA,0,"44593","https://www.facebook.com/barette.optique/"
"133","604","76276","Forges-les-Eaux","Forges-les-Eaux",11,"28","Normandie","76","276","Forges-les-Eaux",3996,49.6117853364,1.53278752911,884429606,53,8.8443e+13,2020-06-22,NA,2020-10-16 03:57:05,FALSE,2020-06-12,5710,"GROUPE ANQUETIL",NA,NA,NA,NA,NA,NA,NA,NA,NA,NA,NA,NA,NA,"47.78A",NA,"N",NA,NA,12,2021-03-08 11:35:30,NA,NA,NA,"FORGES-LES-EAUX",NA,"FORGES ANQUETIL OPTICIENS",NA,NA,"FORGES ANQUETIL OPTICIENS","1 PL BREVIERE ET 2 RUE ALBERT BROCHE 76440",NA,5920,NA,0,1,0,1,0,NA,0,"43709","https://anquetilopticiens.fr/"
"134","654","32256","Mirande","Mirande",11,"76","Occitanie","32","256","Mirande",3794,43.5186713962,0.410792361049,451822167,16,4.51822e+13,2004-02-23,2019,2021-10-27 08:07:56,TRUE,2004-02-23,1000,NA,NA,"HELENE OPTIQUE",NA,NA,"F","FANLOU",NA,"HELENE",NA,NA,NA,"HELENE",NA,"47.78A",NA,NA,"2",2019,16,2021-10-27 08:07:56,"PME",2019,NA,"MIRANDE",NA,NA,NA,NA,NA,"7 RUE DU PRESIDENT WILSON 32300",NA,4489,NA,0,0,0,0,0,NA,0,"44013","https://heleneoptique.com/"
"135","560","27275","Gaillon","Gaillon",11,"28","Normandie","27","275","Gaillon",7022,49.1591132617,1.34701632223,407748383,12,4.07748e+13,1996-05-01,2019,2021-12-24 08:39:47,TRUE,1996-05-01,5710,"OPTIQUE DU CHATEAU",NA,NA,NA,NA,NA,NA,NA,NA,NA,NA,NA,NA,NA,"47.78A",NA,"N","2",2019,12,2021-12-24 08:39:47,"PME",2019,NA,"GAILLON",NA,NA,NA,NA,NA,"32 RUE DU GENERAL DE GAULLE 27600",NA,7022,NA,0,1,1,0,0,NA,0,"43344","https://optiquechateau.fr/"
"136","560","27275","Gaillon","Gaillon",11,"28","Normandie","27","275","Gaillon",7022,49.1591132617,1.34701632223,448605204,32,4.48605e+13,2021-07-01,NA,2021-09-04 12:55:45,TRUE,2003-06-01,5499,"7 ID OPTIQUE",NA,NA,NA,NA,NA,NA,NA,NA,NA,NA,NA,NA,NA,"47.78A",NA,"N","1",2019,32,2021-10-27 08:02:59,"PME",2019,NA,"GAILLON",NA,NA,NA,NA,NA,"9 AV MARECHAL LECLERC 27600",NA,7022,"atol",0,0,0,0,0,NA,1,"44470","https://www.opticiens-atol.com/opticiens/gaillon-9-av-du-marechal-leclerc?utm_source=Yext&utm_medium=GMB&y_source=1_MTUwOTU3NDItNzE1LWxvY2F0aW9uLndlYnNpdGU%3D"
"137","560","27275","Gaillon","Gaillon",11,"28","Normandie","27","275","Gaillon",7022,49.1591132617,1.34701632223,477895916,21,4.77896e+13,2007-12-04,2019,2021-10-27 08:12:10,TRUE,2004-07-08,5499,"LABORDE OPTIQUE",NA,NA,NA,NA,NA,NA,NA,NA,NA,NA,NA,NA,NA,"47.78A",NA,"N","2",2019,21,2021-10-27 08:12:10,"PME",2019,NA,"GAILLON",NA,NA,NA,NA,NA,"24 RUE DU GENERAL DE GAULLE 27600",NA,7022,"grandoptical",1,0,1,0,0,NA,0,"43344","https://www.grandoptical.com/opticien/l/gaillon/24-rue-general-de-gaulle/1800630?utm_medium=gmb&utm_source=gmb_lien_web"
"138","492","83065","Gassin","Saint-Tropez",20,"93","Provence-Alpes-Côte d'Azur","83","65","Gassin",2623,43.2392065224,6.58617518642,382107894,26,3.82108e+13,1991-06-03,2019,2021-10-27 08:10:21,TRUE,1991-05-23,5499,"BENOIT CARTIER OPTIQUE",NA,NA,NA,NA,NA,NA,NA,NA,NA,NA,NA,NA,NA,"47.78A",NA,NA,"2",2019,26,2021-10-27 08:10:21,"PME",2019,"GEANT CASINO NO 33","GASSIN",NA,NA,NA,NA,NA,"LA FOUX 83580",NA,9178,NA,0,0,0,0,0,NA,0,"44621","https://www.facebook.com/B.cartieroptique/"
"139","492","83065","Gassin","Saint-Tropez",20,"93","Provence-Alpes-Côte d'Azur","83","65","Gassin",2623,43.2392065224,6.58617518642,432713618,28,4.32714e+13,2000-11-28,2019,2021-10-27 08:12:12,TRUE,2000-09-01,5499,"MP OPTIQUE",NA,NA,NA,NA,NA,NA,NA,NA,NA,NA,NA,NA,NA,"47.78A",NA,NA,"2",2019,28,2021-10-27 08:12:12,"PME",2019,NA,"GASSIN",NA,"ALAIN AFFLELOU",NA,NA,NA,"CHE COMMUL DE LA FOUX 83580",NA,9178,NA,NA,NA,NA,NA,NA,NA,NA,NA,NA
"140","492","83065","Gassin","Saint-Tropez",20,"93","Provence-Alpes-Côte d'Azur","83","65","Gassin",2623,43.2392065224,6.58617518642,451273833,41,4.51274e+13,2008-02-04,NA,2021-02-23 13:34:32,FALSE,2004-01-01,1000,NA,NA,"OPTIQUE ARFEUILLERE",NA,NA,"F","TORRESSAN","ARFEUILLERE","NICOLE",NA,NA,NA,"NICOLE",NA,"47.78A",NA,NA,"NN",NA,25,2017-05-20 07:59:17,"PME",2019,"LA FOUX","GASSIN",NA,"ATOL OPTICIENS",NA,NA,NA,"LOT 17 CENTRE COMMERCIAL GEANT 83580",NA,9178,NA,NA,NA,NA,NA,NA,NA,NA,NA,NA
"141","568","51612","Blancs-Coteaux","Blancs-Coteaux",11,"44","Grand Est","51","612","Blancs-Coteaux",3501,48.9081794912,3.97961201086,479547648,28,4.79548e+13,2008-03-01,2019,2021-10-27 08:14:45,TRUE,2004-11-01,5499,"SARL OPTIQUE AVELINE",NA,NA,NA,NA,NA,NA,NA,NA,NA,NA,NA,NA,NA,"47.78A",NA,"N","1",2019,28,2021-10-27 08:14:44,"PME",2019,NA,"BLANCS-COTEAUX",NA,"SARL OPTIQUE AVELINE",NA,NA,NA,"35 RUE DE CHALONS 51130",NA,6991,NA,0,0,0,0,0,NA,0,"42461","https://optiqueaveline.site-solocal.com/"
"142","644","10034","Bar-sur-Seine","Bar-sur-Seine",11,"44","Grand Est","10","34","Bar-sur-Seine",3202,48.1127221863,4.37880982139,480358902,17,4.80359e+13,2005-01-01,2019,2021-10-27 08:16:16,TRUE,2005-01-01,5710,"ROSS OPTICIENS",NA,NA,NA,NA,NA,NA,NA,NA,NA,NA,NA,NA,NA,"47.78A",NA,"N","1",2019,17,2021-10-27 08:16:16,"PME",2019,NA,"BAR-SUR-SEINE",NA,NA,NA,NA,NA,"96 RUE DE LA RESISTANCE 10110",NA,4757,NA,0,0,0,0,0,NA,0,"42186","https://rossopticiens.fr/"
"143","639","65304","Maubourguet","Maubourguet",11,"76","Occitanie","65","304","Maubourguet",2408,43.4688561646,0.044250933589,480560341,38,4.8056e+13,2007-08-23,2019,2021-10-27 08:16:36,TRUE,2005-02-01,1000,NA,NA,NA,NA,NA,"M","ROYO",NA,"ERIC","JESUS",NA,NA,"ERIC",NA,"47.78A",NA,NA,"1",2019,38,2021-10-27 08:16:36,"PME",2019,NA,"MAUBOURGUET",NA,"65 OPTIK",NA,NA,NA,"223 RUE GEORGES CLEMENCEAU 65700",NA,4710,NA,1,1,0,0,0,NA,1,"42491","http://www.64optik.com/"
"144","673","67474","Soultz-sous-Forêts","Soultz-sous-Forêts",11,"44","Grand Est","67","474","Soultz-sous-Forêts",3212,48.9461642075,7.87359864642,480608579,29,4.80609e+13,2005-08-16,2019,2022-02-10 08:40:12,TRUE,2005-01-01,5499,"SKY",NA,NA,NA,NA,NA,NA,NA,NA,NA,NA,NA,NA,NA,"47.78A",NA,NA,"2",2019,29,2022-02-10 08:40:12,"PME",2019,"ANGLE RUE FROKER","SOULTZ-SOUS-FORETS",NA,"OPTIC 2000  LA RESIDENCE",NA,NA,NA,"RUE DU DOCTEUR DEUTSCH 67250",NA,3212,NA,NA,NA,NA,NA,NA,NA,NA,NA,NA
"145","590","61145","Domfront en Poiraie","Domfront en Poiraie",11,"28","Normandie","61","145","Domfront en Poiraie",4370,48.5824684934,-0.61398156582,480662972,45,4.80663e+13,2015-06-18,2019,2021-10-27 08:16:46,FALSE,2005-01-27,5710,"OPTIQUE DE LA BAIE",NA,NA,NA,NA,NA,NA,NA,NA,NA,NA,NA,NA,NA,"47.78A",NA,"N","2",2019,11,2021-10-27 08:16:46,"PME",2019,NA,"DOMFRONT-EN-POIRAIE",NA,NA,NA,NA,NA,"14 RUE DU MARECHAL FOCH 61700",NA,6223,"lissac",1,0,0,0,1,NA,0,"44440","http://www.lissac-opticien-domfront.gbsavac.com/"
"146","492","83065","Gassin","Saint-Tropez",20,"93","Provence-Alpes-Côte d'Azur","83","65","Gassin",2623,43.2392065224,6.58617518642,451273833,58,4.51274e+13,2008-02-04,NA,2011-04-23 12:42:32,FALSE,2004-01-01,1000,NA,NA,"OPTIQUE ARFEUILLERE",NA,NA,"F","TORRESSAN","ARFEUILLERE","NICOLE",NA,NA,NA,"NICOLE",NA,"47.78A",NA,NA,"NN",NA,25,2017-05-20 07:59:17,"PME",2019,"LOT 17 CENTRE COMMERCIAL GEANT","GASSIN",NA,"ATOL OPTICIENS",NA,NA,NA,"RPT DE LA FOUX 83580",NA,9178,NA,NA,NA,NA,NA,NA,NA,NA,NA,NA
"147","483","40119","Hagetmau","Hagetmau",11,"75","Nouvelle-Aquitaine","40","119","Hagetmau",4829,43.6504279428,-0.590576524806,487509390,26,4.87509e+13,2018-10-29,2019,2021-10-27 08:23:47,TRUE,2005-11-04,5499,"OPTIQUE DE LA FONTAINE",NA,NA,NA,NA,NA,NA,NA,NA,NA,NA,NA,NA,NA,"47.78A",NA,"N","2",2019,26,2021-10-27 08:23:47,"PME",2019,NA,"HAGETMAU",NA,NA,NA,NA,NA,"181 RUE VICTOR HUGO 40700",NA,9716,NA,NA,NA,NA,NA,NA,NA,NA,NA,NA
"148","483","40119","Hagetmau","Hagetmau",11,"75","Nouvelle-Aquitaine","40","119","Hagetmau",4829,43.6504279428,-0.590576524806,818533531,13,8.18534e+13,2016-02-18,2019,2021-10-27 09:23:55,TRUE,2016-02-18,5499,"ALICE",NA,"LES YEUX D'HAGETMAU",NA,NA,NA,NA,NA,NA,NA,NA,NA,NA,NA,"47.78A",NA,NA,"1",2019,13,2021-10-27 09:23:55,"PME",2019,NA,"HAGETMAU",NA,NA,NA,NA,"LES YEUX D HAGETMAU","22 RUE GAMBETTA 40700",NA,9716,NA,NA,NA,NA,NA,NA,NA,NA,NA,NA
"149","610","88078","Bruyères","Bruyères",11,"44","Grand Est","88","78","Bruyères",3117,48.2129348466,6.71603066311,481177160,19,4.81177e+13,2005-01-01,NA,2018-09-29 12:21:50,TRUE,2005-01-01,5499,"SARL OV.B.",NA,"OPTIQUE VOSGIENNE",NA,NA,NA,NA,NA,NA,NA,NA,NA,NA,NA,"47.78A",NA,NA,"NN",NA,19,2018-09-29 12:21:50,"PME",2019,NA,"BRUYERES",NA,NA,NA,NA,NA,"7 AV DU CAMEROUN 88600",NA,5590,NA,NA,NA,NA,NA,NA,NA,NA,NA,NA
"150","488","16106","Confolens","Confolens",11,"75","Nouvelle-Aquitaine","16","106","Confolens",2825,46.0191386034,0.658522279035,481752970,14,4.81753e+13,2005-05-01,2019,2021-10-27 08:18:22,TRUE,2005-05-01,5499,"FESTIVAL",NA,NA,NA,NA,NA,NA,NA,NA,NA,NA,NA,NA,NA,"47.78A",NA,NA,"1",2019,14,2021-10-27 08:18:22,"PME",2019,NA,"CONFOLENS",NA,NA,NA,NA,NA,"3 RUE DU MAQUIS FOCH 16500",NA,9586,NA,1,0,0,1,1,NA,0,"44287","https://www.regard-opticiens.fr/"
"151","546","43112","Langeac","Langeac",11,"84","Auvergne-Rhône-Alpes","43","112","Langeac",3742,45.0822541836,3.47806203807,482331998,13,4.82332e+13,2005-05-01,2019,2021-10-27 08:19:12,TRUE,2005-05-01,5499,"O.V.A. 2",NA,"BOUSSAND OPTICIENS",NA,NA,NA,NA,NA,NA,NA,NA,NA,NA,NA,"47.78A",NA,NA,"1",2019,13,2021-10-27 08:19:12,"PME",2019,NA,"LANGEAC",NA,NA,NA,NA,NA,"29 BD CHARLES DE GAULLE 43300",NA,7592,NA,0,0,0,0,0,NA,0,"44470","http://valdoptic.expertsantevisuelle.com/"
"152","483","40119","Hagetmau","Hagetmau",11,"75","Nouvelle-Aquitaine","40","119","Hagetmau",4829,43.6504279428,-0.590576524806,824579908,24,8.2458e+13,1900-01-01,NA,2021-02-23 17:45:08,TRUE,2016-12-27,5499,"TVR HAGETMAU",NA,NA,NA,NA,NA,NA,NA,NA,NA,NA,NA,NA,NA,"47.78A",NA,NA,NA,NA,24,2020-07-09 12:37:49,"PME",2019,NA,"HAGETMAU",NA,"ALAIN AFFLELOU",NA,NA,NA,"RTE D ORTHEZ 40700",NA,9716,NA,NA,NA,NA,NA,NA,NA,NA,NA,NA
"153","563","58059","La Charité-sur-Loire","La Charité-sur-Loire",11,"27","Bourgogne-Franche-Comté","58","59","La Charité-sur-Loire",4972,47.1835862006,3.02885515594,402296677,22,4.02297e+13,2002-05-13,2019,2021-10-27 08:28:35,TRUE,1995-09-11,5499,"LA CHARITE OPTIC",NA,"LA CHARITE OPTIC",NA,NA,NA,NA,NA,NA,NA,NA,NA,NA,NA,"47.78A",NA,NA,"2",2019,22,2021-10-27 08:28:35,"PME",2019,NA,"LA CHARITE-SUR-LOIRE",NA,NA,NA,NA,NA,"57  GRANDE RUE FRANCOIS MITTERRAND 58400",NA,7021,NA,NA,NA,NA,NA,NA,NA,NA,NA,NA
"154","563","58059","La Charité-sur-Loire","La Charité-sur-Loire",11,"27","Bourgogne-Franche-Comté","58","59","La Charité-sur-Loire",4972,47.1835862006,3.02885515594,402296677,30,4.02297e+13,2012-10-01,2019,2021-10-27 08:28:35,FALSE,1995-09-11,5499,"LA CHARITE OPTIC",NA,"LA CHARITE OPTIC",NA,NA,NA,NA,NA,NA,NA,NA,NA,NA,NA,"47.78A",NA,NA,"2",2019,22,2021-10-27 08:28:35,"PME",2019,"GALERIE MDE DU CENTRE CAL AUCHAN","LA CHARITE-SUR-LOIRE",NA,"OPTIC 2000",NA,NA,"LA CHARITE OPTIC","138 AV MARECHAL LECLERC 58400",NA,7021,NA,NA,NA,NA,NA,NA,NA,NA,NA,NA
"155","569","41149","Montoire-sur-le-Loir","Montoire-sur-le-Loir",11,"24","Centre-Val de Loire","41","149","Montoire-sur-le-Loir",3978,47.7650269644,0.854948191169,483488961,10,4.83489e+13,2005-08-20,2019,2021-10-27 08:20:50,TRUE,2005-08-20,5499,"LAPRESLE OPTIQUE",NA,NA,NA,NA,NA,NA,NA,NA,NA,NA,NA,NA,NA,"47.78A",NA,NA,"1",2019,10,2021-10-27 08:20:50,"PME",2019,NA,"MONTOIRE-SUR-LE-LOIR",NA,NA,NA,NA,NA,"42 B PL CLEMENCEAU 41800",NA,6938,NA,0,0,0,0,0,NA,0,"44470","https://www.lapresleoptique.fr/v1/"
"156","563","58059","La Charité-sur-Loire","La Charité-sur-Loire",11,"27","Bourgogne-Franche-Comté","58","59","La Charité-sur-Loire",4972,47.1835862006,3.02885515594,501503114,32,5.01503e+13,2016-12-18,2019,2021-10-27 08:03:24,TRUE,2007-12-14,5710,"DHOMPS OPTIQUE",NA,NA,NA,NA,NA,NA,NA,NA,NA,NA,NA,NA,NA,"47.78A",NA,"N","3",2019,32,2021-10-27 08:03:24,"PME",2019,NA,"LA CHARITE-SUR-LOIRE",NA,NA,NA,NA,NA,"91 RUE CAMILLE BARRERE 58400",NA,7021,NA,NA,NA,NA,NA,NA,NA,NA,NA,NA
"157","513","17161","La Flotte","La Flotte",11,"75","Nouvelle-Aquitaine","17","161","La Flotte",2804,46.1793660462,-1.32163012232,487820847,35,4.87821e+13,2020-02-21,NA,2021-02-23 13:51:59,FALSE,2005-12-27,5710,"S2BH OPTIQUE CHATEL",NA,"S2BH OPTIQUE CHATEL",NA,NA,NA,NA,NA,NA,NA,NA,NA,NA,NA,"47.78A",NA,"N","1",2019,27,2021-12-21 03:54:41,"PME",2019,"ZA LA CROIX MICHAUD","LA FLOTTE",NA,"OPTIQUE LA FLOTTE",NA,NA,NA,"6 RUE DE LA CAILLOTIERE 17630",NA,8560,NA,NA,NA,NA,NA,NA,NA,NA,NA,NA
"158","513","17051","Le Bois-Plage-en-Ré","La Flotte",12,"75","Nouvelle-Aquitaine","17","51","Le Bois-Plage-en-Ré",2279,46.1825283655,-1.37625908104,431224468,30,4.31224e+13,2019-09-17,2019,2021-10-27 08:10:20,TRUE,2000-03-24,5710,"I ET J ROYER",NA,NA,NA,NA,NA,NA,NA,NA,NA,NA,NA,NA,NA,"47.78A",NA,"N","1",2019,30,2021-10-27 08:10:20,"PME",2019,NA,"LE BOIS-PLAGE-EN-RE",NA,NA,NA,NA,NA,"8 C RUE DU POLYGONE 17580",NA,8560,NA,NA,NA,NA,NA,NA,NA,NA,NA,NA
"159","543","32119","Eauze","Eauze",11,"76","Occitanie","32","119","Eauze",3992,43.8607370613,0.105730356401,484153754,11,4.84154e+13,2005-09-16,NA,2018-09-29 12:27:11,TRUE,2005-09-16,5499,"ELUSA OPTIC",NA,NA,NA,NA,NA,NA,NA,NA,NA,NA,NA,NA,NA,"47.78A",NA,NA,"NN",NA,11,2018-09-29 12:27:11,"PME",2019,NA,"EAUZE",NA,NA,NA,NA,NA,"14 RUE ST JULY 32800",NA,7621,NA,0,0,0,0,0,NA,0,"44470","https://www.elusaoptic.com/"
"160","609","47264","Saint-Pardoux-Isaac","Miramont-de-Guyenne",20,"75","Nouvelle-Aquitaine","47","264","Saint-Pardoux-Isaac",1155,44.6122576161,0.378163344287,484288576,24,4.84289e+13,2009-12-20,2019,2021-10-27 08:21:58,TRUE,2005-09-26,5499,"SARL DROPTIQUE",NA,"L'OPTIQUE DU DROPT",NA,NA,NA,NA,NA,NA,NA,NA,NA,NA,NA,"47.78A",NA,NA,"2",2019,24,2021-10-27 08:21:58,"PME",2019,"LE REBEQUET","SAINT-PARDOUX-ISAAC",NA,NA,NA,NA,NA,"LD LE REBEQUET 47800",NA,5702,"atol",0,0,0,1,0,NA,0,"43891","https://www.opticiens-atol.com/opticiens/saint-pardoux-isaac-zac-du-rebequet?utm_source=Yext&utm_medium=GMB&y_source=1_MTUwOTU3OTAtNzE1LWxvY2F0aW9uLndlYnNpdGU%3D"
"161","609","47168","Miramont-de-Guyenne","Miramont-de-Guyenne",11,"75","Nouvelle-Aquitaine","47","168","Miramont-de-Guyenne",3259,44.5833450029,0.356429133423,484288576,32,4.84289e+13,2012-04-02,2019,2021-10-27 08:21:58,FALSE,2005-09-26,5499,"SARL DROPTIQUE",NA,"L'OPTIQUE DU DROPT",NA,NA,NA,NA,NA,NA,NA,NA,NA,NA,NA,"47.78A",NA,NA,"2",2019,24,2021-10-27 08:21:58,"PME",2019,NA,"MIRAMONT-DE-GUYENNE",NA,NA,NA,NA,NA,"4 BD GEORGES CLEMENCEAU 47800",NA,5702,"atol",0,0,0,0,0,NA,0,"44256","https://www.opticiens-atol.com/opticiens/miramont-de-guyenne-4-boulevard-clemenceau?utm_source=Yext&utm_medium=GMB&y_source=1_MTUwOTU3ODctNzE1LWxvY2F0aW9uLndlYnNpdGU%3D"
"162","489","27428","Le Neubourg","Le Neubourg",11,"28","Normandie","27","428","Le Neubourg",4375,49.1482790328,0.897176574238,390449890,16,3.9045e+13,1993-01-01,2019,2021-10-27 08:18:11,TRUE,1993-01-01,5499,"SARL OPTIQUE DU NEUBOURG",NA,"OPTIQUE HIRON",NA,NA,NA,NA,NA,NA,NA,NA,NA,NA,NA,"47.78A",NA,"N","0",2019,16,2021-10-27 08:18:11,"PME",2019,NA,"LE NEUBOURG",NA,NA,NA,NA,NA,"46 RUE DU GAL DE GAULLE 27110",NA,9606,NA,NA,NA,NA,NA,NA,NA,NA,NA,NA
"163","489","27428","Le Neubourg","Le Neubourg",11,"28","Normandie","27","428","Le Neubourg",4375,49.1482790328,0.897176574238,488346206,29,4.88346e+13,2007-01-15,2019,2021-10-27 08:25:12,TRUE,2006-01-01,5499,"LABORDE 2 OPTIQUE",NA,"LABORDE 2 OPTIQUE",NA,NA,NA,NA,NA,NA,NA,NA,NA,NA,NA,"47.78A",NA,"N","2",2019,29,2021-10-27 08:25:12,"PME",2019,NA,"LE NEUBOURG",NA,"SARL LABORDE  2 OPTIQUE",NA,NA,NA,"1 RUE DUPONT DE L'EURE 27110",NA,9606,NA,NA,NA,NA,NA,NA,NA,NA,NA,NA
"164","679","62588","Montreuil","Montreuil",11,"32","Hauts-de-France","62","588","Montreuil",2144,50.4655272073,1.77098646216,485130116,26,4.8513e+13,2014-10-15,NA,2018-09-29 12:29:01,TRUE,2005-12-01,5499,"VIOLAINE ET AMELIE OPTIQUE",NA,"CLIN D'OEIL OPTIQUE",NA,NA,NA,NA,NA,NA,NA,NA,NA,NA,NA,"47.78A",NA,NA,"NN",NA,26,2018-09-29 12:29:01,"PME",2019,NA,"MONTREUIL",NA,"CLIN D'OEIL OPTIQUE",NA,NA,"CLIN D'OEIL OPTIQUE","17 PL GENERAL DE GAULLE 62170",NA,2144,NA,0,0,0,0,0,NA,0,"43586",NA
"165","619","21663","Venarey-les-Laumes","Venarey-les-Laumes",11,"27","Bourgogne-Franche-Comté","21","663","Venarey-les-Laumes",2921,47.5377240472,4.43966492373,485259394,24,4.85259e+13,2007-03-29,2019,2021-10-27 08:23:23,TRUE,2005-11-22,5710,"OPTIQUE VEREY LES LAUMES",NA,NA,NA,NA,NA,NA,NA,NA,NA,NA,NA,NA,NA,"47.78A",NA,NA,"2",2019,24,2021-10-27 08:23:23,"PME",2019,"CTRE CIAL SUPER U","VEREY-LES-LAUMES",NA,NA,NA,NA,NA,"PL DE LA LIBERATION 21150",NA,5272,"optic 2000",1,0,1,1,1,NA,0,"44652","https://opticiens.optic2000.com/opticien-venarey-les-laumes-21150-2002"
"166","489","27428","Le Neubourg","Le Neubourg",11,"28","Normandie","27","428","Le Neubourg",4375,49.1482790328,0.897176574238,823862024,10,8.23862e+13,2016-11-10,2019,2021-10-27 09:29:41,TRUE,2016-11-10,5499,"YADE",NA,NA,NA,NA,NA,NA,NA,NA,NA,NA,NA,NA,NA,"47.78A",NA,NA,"1",2019,10,2021-10-27 09:29:41,"PME",2019,NA,"LE NEUBOURG",NA,"KRYS",NA,NA,NA,"43 RUE DUPONT DE L'EURE 27110",NA,9606,NA,NA,NA,NA,NA,NA,NA,NA,NA,NA
"167","489","27428","Le Neubourg","Le Neubourg",11,"28","Normandie","27","428","Le Neubourg",4375,49.1482790328,0.897176574238,849272406,18,8.49272e+13,2019-03-19,2019,2021-10-27 09:47:46,TRUE,2019-03-19,5499,"OPTIQUE HALBOUT",NA,NA,NA,NA,NA,NA,NA,NA,NA,NA,NA,NA,NA,"47.78A",NA,"N","1",2019,18,2021-10-27 09:47:46,"PME",2019,NA,"LE NEUBOURG",NA,NA,NA,NA,"OPTIQUE HALBOUT","46 RUE DU GENERAL DE GAULLE 27110",NA,9606,NA,NA,NA,NA,NA,NA,NA,NA,NA,NA
"168","520","38315","Le Pont-de-Beauvoisin","Le Pont-de-Beauvoisin",11,"84","Auvergne-Rhône-Alpes","38","315","Le Pont-de-Beauvoisin",3771,45.5318785509,5.66166638514,482418647,12,4.82419e+13,2005-06-20,NA,2019-11-14 14:00:36,TRUE,2005-06-20,5499,"CLERE OPTIQUE",NA,"OLIVIER OPTIQUE",NA,NA,NA,NA,NA,NA,NA,NA,NA,NA,NA,"47.78A",NA,NA,NA,NA,12,2020-07-09 10:39:26,"PME",2019,NA,"LE PONT-DE-BEAUVOISIN",NA,NA,NA,NA,NA,"15 PL DE LA REPUBLIQUE 38480",NA,8467,NA,NA,NA,NA,NA,NA,NA,NA,NA,NA
"169","520","73204","Le Pont-de-Beauvoisin","Le Pont-de-Beauvoisin",12,"84","Auvergne-Rhône-Alpes","73","204","Le Pont-de-Beauvoisin",2106,45.5356435604,5.68142349925,484683297,10,4.84683e+13,2005-10-07,2019,2021-10-27 08:22:31,TRUE,2005-10-07,5499,"PDB OPTIC",NA,NA,NA,NA,NA,NA,NA,NA,NA,NA,NA,NA,NA,"47.78A",NA,"N","1",2019,10,2021-10-27 08:22:31,"PME",2019,NA,"LE PONT-DE-BEAUVOISIN",NA,NA,NA,NA,NA,"1 RUE DE L'HOTEL DE VILLE 73330",NA,8467,NA,NA,NA,NA,NA,NA,NA,NA,NA,NA
"170","520","73204","Le Pont-de-Beauvoisin","Le Pont-de-Beauvoisin",12,"84","Auvergne-Rhône-Alpes","73","204","Le Pont-de-Beauvoisin",2106,45.5356435604,5.68142349925,511959116,100,5.11959e+13,2020-11-23,NA,2021-11-22 17:35:37,FALSE,2009-04-01,5710,"RYSOPTIC",NA,NA,NA,NA,NA,NA,NA,NA,NA,NA,NA,NA,NA,"47.78A",NA,"N","12",2019,76,2021-11-22 17:37:31,"PME",2019,NA,"LE PONT-DE-BEAUVOISIN",NA,"OPTICAL CENTER",NA,NA,NA,"LD LA BARONNIE 73330",NA,8467,NA,NA,NA,NA,NA,NA,NA,NA,NA,NA
"171","520","73204","Le Pont-de-Beauvoisin","Le Pont-de-Beauvoisin",12,"84","Auvergne-Rhône-Alpes","73","204","Le Pont-de-Beauvoisin",2106,45.5356435604,5.68142349925,529124208,16,5.29124e+13,2010-12-01,2019,2021-10-27 08:35:54,TRUE,2010-12-01,5710,"OPTIQUE C. MARIN",NA,NA,NA,NA,NA,NA,NA,NA,NA,NA,NA,NA,NA,"47.78A",NA,NA,"3",2019,16,2021-10-27 08:35:54,"PME",2019,NA,"LE PONT-DE-BEAUVOISIN",NA,NA,NA,NA,NA,"LA BARONNIE 73330",NA,8467,NA,NA,NA,NA,NA,NA,NA,NA,NA,NA
"172","520","38315","Le Pont-de-Beauvoisin","Le Pont-de-Beauvoisin",11,"84","Auvergne-Rhône-Alpes","38","315","Le Pont-de-Beauvoisin",3771,45.5318785509,5.66166638514,633620158,12,6.3362e+13,1900-01-01,2019,2021-10-27 08:47:39,TRUE,1963-01-01,5710,"SDOL",NA,"VISUAL",NA,NA,NA,NA,NA,NA,NA,NA,NA,NA,NA,"47.78A",NA,"N","11",2019,12,2021-12-17 11:16:05,"PME",2019,NA,"LE PONT-DE-BEAUVOISIN",NA,"GRAND OPTICAL",NA,NA,"OPTIQUE A. ESCOFFIER","25 RUE ALEXANDRE DUMAS 38480",NA,8467,NA,NA,NA,NA,NA,NA,NA,NA,NA,NA
"173","582","71106","Charolles","Charolles",11,"27","Bourgogne-Franche-Comté","71","106","Charolles",3220,46.4476067658,4.28009429694,489597708,10,4.89598e+13,2006-03-28,2019,2021-10-27 08:27:02,TRUE,2006-03-28,5499,"SARL BALIGAND - DAUVERGNE",NA,"VISION PLUS",NA,NA,NA,NA,NA,NA,NA,NA,NA,NA,NA,"47.78A",NA,NA,"1",2019,10,2021-10-27 08:27:02,"PME",2019,NA,"CHAROLLES",NA,"VISION PLUS",NA,NA,NA,"1 T RUE DE CHAMPAGNY 71120",NA,6830,"vision plus",1,0,0,0,1,NA,0,"44440","https://www.lecollectifdeslunetiers.fr/opticien/france/saone-et-loire/opticien-charolles/charolles"
"174","531","29027","Châteauneuf-du-Faou","Châteauneuf-du-Faou",11,"53","Bretagne","29","27","Châteauneuf-du-Faou",3775,48.1889732859,-3.82126129764,489941757,10,4.89942e+13,2006-04-01,2019,2021-10-27 08:27:30,TRUE,2006-04-01,5499,"OPTIC N.LAMY",NA,NA,NA,NA,NA,NA,NA,NA,NA,NA,NA,NA,NA,"47.78A",NA,NA,"2",2019,10,2021-10-27 08:27:30,"PME",2019,NA,"CHATEAUNEUF-DU-FAOU",NA,NA,NA,NA,NA,"5 RUE DE MORLAIX 29520",NA,7939,"vision plus",1,1,0,0,0,NA,0,"42156","https://www.lecollectifdeslunetiers.fr/opticien/france/finistere/opticien-chateauneuf-du-faou/chateauneuf-dufaou"
"175","520","73204","Le Pont-de-Beauvoisin","Le Pont-de-Beauvoisin",12,"84","Auvergne-Rhône-Alpes","73","204","Le Pont-de-Beauvoisin",2106,45.5356435604,5.68142349925,801431636,19,8.01432e+13,2014-06-01,2019,2021-10-27 09:08:36,TRUE,2014-06-01,5710,"HEMERA",NA,NA,NA,NA,NA,NA,NA,NA,NA,NA,NA,NA,NA,"47.78A",NA,"N","2",2019,19,2021-10-27 09:08:36,"PME",2019,NA,"LE PONT-DE-BEAUVOISIN",NA,"ALAIN AFFLELOU",NA,NA,NA,"ESPACE ECONOMIQUE DE LA BARONNIE 73330",NA,8467,NA,NA,NA,NA,NA,NA,NA,NA,NA,NA
"176","520","73204","Le Pont-de-Beauvoisin","Le Pont-de-Beauvoisin",12,"84","Auvergne-Rhône-Alpes","73","204","Le Pont-de-Beauvoisin",2106,45.5356435604,5.68142349925,811574037,24,8.11574e+13,2015-08-01,2019,2021-10-27 09:17:53,FALSE,2015-05-26,5710,"GENOP",NA,NA,NA,NA,NA,NA,NA,NA,NA,NA,NA,NA,NA,"47.78A",NA,"N","11",2019,16,2022-02-08 04:24:13,"PME",2019,NA,"LE PONT-DE-BEAUVOISIN",NA,NA,NA,NA,NA,"ZI DE LA BARONNIE 73330",NA,8467,NA,NA,NA,NA,NA,NA,NA,NA,NA,NA
"177","580","38001","Les Abrets en Dauphiné","Les Abrets en Dauphiné",11,"84","Auvergne-Rhône-Alpes","38","1","Les Abrets en Dauphiné",6415,45.5418940561,5.59342426222,477879035,38,4.77879e+13,2013-06-01,2019,2021-10-27 08:12:09,TRUE,2004-07-10,5499,"LES OPTICIENS ABRESIENS (LOA)","LOA",NA,NA,NA,NA,NA,NA,NA,NA,NA,NA,NA,NA,"47.78A",NA,"N","2",2019,38,2021-10-27 08:12:09,"PME",2019,NA,"LES ABRETS-EN-DAUPHINE",NA,"BLEU CLAIR OPTICIEN",NA,NA,"BLEU CLAIR OPTICIEN","72 RUE DE LA REPUBLIQUE 38490",NA,6415,NA,NA,NA,NA,NA,NA,NA,NA,NA,NA
"178","607","85215","Saint-Fulgent","Saint-Fulgent",11,"52","Pays de la Loire","85","215","Saint-Fulgent",3923,46.8705618525,-1.16246465678,491168654,11,4.91169e+13,2006-08-01,2019,2021-10-27 08:29:07,TRUE,2006-08-01,5499,"OPTIQUE SAINT FULGENT",NA,NA,NA,NA,NA,NA,NA,NA,NA,NA,NA,NA,NA,"47.78A",NA,NA,"1",2019,11,2021-10-27 08:29:07,"PME",2019,NA,"SAINT-FULGENT",NA,"VISUAL",NA,NA,NA,"ZAC DE LA METAIRIE 85250",NA,5770,"optic 2000",0,0,0,0,0,NA,0,"44316","https://opticiens.optic2000.com/opticien-saint-fulgent-85250-2121"
"179","616","32462","Vic-Fezensac","Vic-Fezensac",11,"76","Occitanie","32","462","Vic-Fezensac",3558,43.762029942,0.297842185088,491215778,29,4.91216e+13,2012-02-21,2019,2021-10-27 08:29:11,FALSE,2006-08-01,5499,"SARL LA LUNETTERIE",NA,NA,NA,NA,NA,NA,NA,NA,NA,NA,NA,NA,NA,"47.78A",NA,NA,"2",2019,11,2021-10-27 08:29:11,"PME",2019,"VIC FEZENSAC","VIC-FEZENSAC",NA,"SARL LA LUNETTERIE",NA,NA,"SARL LA LUNETTERIE","32 AV EDMUND BERGES 32190",NA,5396,"vision plus",0,0,1,0,0,NA,0,"44470","https://www.lecollectifdeslunetiers.fr/opticien/france/gers/opticien-vic-fezensac/vic-fezensac"
"180","580","38001","Les Abrets en Dauphiné","Les Abrets en Dauphiné",11,"84","Auvergne-Rhône-Alpes","38","1","Les Abrets en Dauphiné",6415,45.5418940561,5.59342426222,822660924,25,8.22661e+13,2016-09-30,2019,2021-10-27 09:28:28,FALSE,2016-09-20,5710,"LA OPTIC",NA,NA,NA,NA,NA,NA,NA,NA,NA,NA,NA,NA,NA,"47.78A",NA,"N","1",2019,17,2021-10-27 09:28:28,"PME",2019,NA,"LES ABRETS-EN-DAUPHINE",NA,NA,NA,NA,NA,"3 RUE ARISTIDE BRIAND 38490",NA,6415,NA,NA,NA,NA,NA,NA,NA,NA,NA,NA
"181","480","27016","Les Andelys","Les Andelys",11,"28","Normandie","27","16","Les Andelys",8199,49.2459086784,1.42805086604,512180142,22,5.1218e+13,2016-02-08,2019,2021-10-27 08:18:54,TRUE,2009-04-30,5499,"SARL ENNEZEAU",NA,NA,NA,NA,NA,NA,NA,NA,NA,NA,NA,NA,NA,"47.78A",NA,NA,"1",2019,22,2021-10-27 08:18:54,"PME",2019,NA,"LES ANDELYS",NA,NA,NA,NA,NA,"11 RUE PIERRE CORNEILLE 27700",NA,9729,NA,NA,NA,NA,NA,NA,NA,NA,NA,NA
"182","480","27016","Les Andelys","Les Andelys",11,"28","Normandie","27","16","Les Andelys",8199,49.2459086784,1.42805086604,543650121,48,5.4365e+13,1900-01-01,2019,2021-10-27 08:46:29,TRUE,1954-01-01,5710,"CHEVALLIER",NA,NA,NA,NA,NA,NA,NA,NA,NA,NA,NA,NA,NA,"47.78A",NA,NA,"2",2019,48,2021-10-27 08:46:29,"PME",2019,NA,"LES ANDELYS",NA,NA,NA,NA,NA,"1 RUE PIERRE CORNEILLE 27700",NA,9729,NA,NA,NA,NA,NA,NA,NA,NA,NA,NA
"183","480","27016","Les Andelys","Les Andelys",11,"28","Normandie","27","16","Les Andelys",8199,49.2459086784,1.42805086604,811612514,18,8.11613e+13,2015-05-27,2019,2021-10-27 09:17:56,TRUE,2015-05-27,5499,"OPTIC LES ANDELYS",NA,NA,NA,NA,NA,NA,NA,NA,NA,NA,NA,NA,NA,"47.78A",NA,NA,"1",2019,18,2021-10-27 09:17:56,"PME",2019,NA,"LES ANDELYS",NA,NA,NA,NA,NA,"31 PL NICOLAS POUSSIN 27700",NA,9729,NA,NA,NA,NA,NA,NA,NA,NA,NA,NA
"184","658","50267","Lessay","Lessay",11,"28","Normandie","50","267","Lessay",2284,49.2167143742,-1.52478862014,497937516,19,4.97938e+13,2007-04-26,NA,2018-04-05 03:36:57,TRUE,2007-04-26,5499,"EURL DOUBLET - BEAUREGARD",NA,"OPTIC OUEST",NA,NA,NA,NA,NA,NA,NA,NA,NA,NA,NA,"47.78A",NA,NA,NA,NA,19,2020-07-09 10:42:49,"PME",2019,NA,"LESSAY",NA,"OPTIC OUEST",NA,NA,NA,"9 PL SAINT CLOUD 50430",NA,4012,NA,NA,NA,NA,NA,NA,NA,NA,NA,NA
"185","481","68185","Lièpvre","Sainte-Marie-aux-Mines",12,"44","Grand Est","68","185","Lièpvre",1752,48.2678392398,7.27599094644,341911014,31,3.41911e+13,2017-07-01,2019,2021-10-27 08:34:44,TRUE,1987-07-01,5710,"OPTIQUE DES MINES",NA,NA,NA,NA,NA,NA,NA,NA,NA,NA,NA,NA,NA,"47.78A",NA,NA,"1",2019,31,2021-10-27 08:34:44,"PME",2019,NA,"LIEPVRE",NA,"OPTIQUE DES MINES",NA,NA,NA,"41 RUE DE LA ROCHETTE 68660",NA,9724,NA,NA,NA,NA,NA,NA,NA,NA,NA,NA
"186","542","24551","Thiviers","Thiviers",11,"75","Nouvelle-Aquitaine","24","551","Thiviers",3033,45.4286304056,0.912184321254,492701826,17,4.92702e+13,2006-10-28,2019,2021-10-27 08:31:15,TRUE,2006-10-28,5710,"DUFRAISSE OPTICIENS",NA,NA,NA,NA,NA,NA,NA,NA,NA,NA,NA,NA,NA,"47.78A",NA,NA,"3",2019,17,2021-10-27 08:31:15,"PME",2019,NA,"THIVIERS",NA,NA,NA,NA,NA,"2 RUE JEAN JAURES 24800",NA,7704,NA,0,0,0,0,0,NA,0,"43709",NA
"187","632","85113","L'Île-d'Yeu","L'Île-d'Yeu",11,"52","Pays de la Loire","85","113","L' Île-d'Yeu",4909,46.7093514816,-2.34712702345,829241389,16,8.29241e+13,2017-04-12,NA,2021-06-06 20:31:36,TRUE,2017-04-12,5499,"RICHEUX OPTIQUE",NA,NA,NA,NA,NA,NA,NA,NA,NA,NA,NA,NA,NA,"47.78A",NA,NA,NA,NA,16,2021-06-06 20:31:36,"PME",2019,"PORT JOINVILLE","L'ILE-D'YEU",NA,NA,NA,NA,NA,"22 RUE DE LA REPUBLIQUE 85350",NA,4909,NA,NA,NA,NA,NA,NA,NA,NA,NA,NA
"188","674","62770","Saint-Venant","Saint-Venant",11,"32","Hauts-de-France","62","770","Saint-Venant",3112,50.6225931834,2.52541265716,494687338,25,4.94687e+13,2008-04-08,NA,2019-11-14 14:00:50,FALSE,2007-02-23,5499,"COBF",NA,NA,NA,NA,NA,NA,NA,NA,NA,NA,NA,NA,NA,"47.78A",NA,"N","1",2019,17,2021-10-27 08:34:26,"PME",2019,NA,"SAINT-VENT",NA,"CENTRE DE VISION",NA,NA,NA,"17 A RUE DU FAUBOURG 62350",NA,3112,NA,1,1,0,0,0,NA,0,"42278","https://www.facebook.com/centredevisionsaintvenant/?ref=page_internal"
"189","527","57177","Dieuze","Dieuze",11,"44","Grand Est","57","177","Dieuze",3137,48.8077845102,6.71733647603,494762461,15,4.94762e+13,2007-03-05,2019,2021-10-27 08:34:33,TRUE,2007-03-05,5499,"SARL SAULNOIS OPTIC",NA,NA,NA,NA,NA,NA,NA,NA,NA,NA,NA,NA,NA,"47.78A",NA,NA,"1",2019,15,2021-10-27 08:34:33,"PME",2019,NA,"DIEUZE",NA,"LA CENTRALE D'OPTIQUE",NA,NA,NA,"6 PL DU MARCHE 57260",NA,8310,NA,0,1,1,1,1,NA,NA,"44197",NA
"190","557","56117","Locminé","Locminé",11,"53","Bretagne","56","117","Locminé",4553,47.8796108678,-2.83755408244,381144252,16,3.81144e+13,1991-03-01,2019,2021-10-27 08:09:14,TRUE,1991-03-01,5499,"OPTIQUE MOLLET",NA,"OPTIQUE LE GOFF",NA,NA,NA,NA,NA,NA,NA,NA,NA,NA,NA,"47.78A",NA,NA,"1",2019,16,2021-10-27 08:09:14,"PME",2019,NA,"LOCMINE",NA,NA,NA,NA,NA,"9 RPT DE LA REPUBLIQUE 56500",NA,7344,NA,NA,NA,NA,NA,NA,NA,NA,NA,NA
"191","557","56117","Locminé","Locminé",11,"53","Bretagne","56","117","Locminé",4553,47.8796108678,-2.83755408244,497900019,17,4.979e+13,2007-04-25,2019,2021-10-27 08:36:04,TRUE,2007-04-25,5710,"LOCMINE OPTIQUE",NA,NA,NA,NA,NA,NA,NA,NA,NA,NA,NA,NA,NA,"47.78A",NA,"N","2",2019,17,2021-10-27 08:36:04,"PME",2019,NA,"LOCMINE",NA,NA,NA,NA,NA,"16 RUE DU FIL 56500",NA,7344,NA,NA,NA,NA,NA,NA,NA,NA,NA,NA
"192","557","56117","Locminé","Locminé",11,"53","Bretagne","56","117","Locminé",4553,47.8796108678,-2.83755408244,902848688,13,9.02849e+13,2021-09-01,NA,2021-09-15 03:40:52,TRUE,2021-09-01,5499,"L'OPTICIENNE LOCMINOISE",NA,NA,NA,NA,NA,NA,NA,NA,NA,NA,NA,NA,NA,"47.78A",NA,"N",NA,NA,13,2021-09-15 03:40:52,NA,NA,NA,"LOCMINE",NA,"L'OPTICIENNE LOCMINOISE",NA,NA,"L'OPTICIENNE LOCMINOISE","1 B RPT DE LA REPUBLIQUE 56500",NA,7344,NA,NA,NA,NA,NA,NA,NA,NA,NA,NA
"193","575","17283","Pons","Pons",11,"75","Nouvelle-Aquitaine","17","283","Pons",4431,45.5770487335,-0.557449237102,498731058,26,4.98731e+13,2007-09-12,2019,2021-10-27 08:37:13,TRUE,2007-06-04,5499,"SARL PONS 2000",NA,NA,NA,NA,NA,NA,NA,NA,NA,NA,NA,NA,NA,"47.78A",NA,NA,"1",2019,26,2021-10-27 08:37:13,"PME",2019,"CENTRE COMMERCIAL E.LECLERC","PONS",NA,NA,NA,NA,NA,"COUDENNE 17800",NA,6733,"optic 2000",1,0,1,0,0,NA,0,"44682","https://opticiens.optic2000.com/opticien-pons-17800-2127"
"194","561","49180","Longué-Jumelles","Longué-Jumelles",11,"52","Pays de la Loire","49","180","Longué-Jumelles",6913,47.3984723864,-0.107579294015,348031436,10,3.48031e+13,1988-09-15,NA,2019-11-14 14:00:40,FALSE,1988-09-15,5499,"O.L.J.",NA,NA,NA,NA,NA,NA,NA,NA,NA,NA,NA,NA,NA,"47.78A",NA,"N","3",2019,36,2021-10-27 08:38:24,"PME",2019,NA,"LONGUE-JUMELLES",NA,"OPTIC 2000",NA,NA,"OPTIC 2000","27 RUE DE L'AUMONERIE 49160",NA,7038,NA,NA,NA,NA,NA,NA,NA,NA,NA,NA
"195","662","68091","Fessenheim","Fessenheim",11,"44","Grand Est","68","91","Fessenheim",2401,47.9099263761,7.53198557441,499101046,21,4.99101e+13,2007-07-31,2019,2021-10-27 08:37:44,FALSE,2007-07-31,5499,"FESSENHEIM OPTIQUE",NA,NA,NA,NA,NA,NA,NA,NA,NA,NA,NA,NA,NA,"47.78A",NA,NA,"2",2019,13,2021-10-27 08:37:44,"PME",2019,NA,"FESSENHEIM",NA,"OPTIC 2000",NA,NA,NA,"RUE DE LA 1ERE ARMEE 68740",NA,3981,"optic 2000",1,0,1,1,1,NA,0,"44652","https://opticiens.optic2000.com/opticien-fessenheim-68740-2114"
"196","668","22362","Tréguier","Tréguier",11,"53","Bretagne","22","362","Tréguier",2695,48.7850465816,-3.23178776538,499440543,19,4.99441e+13,2007-08-03,2019,2021-10-27 08:38:22,TRUE,2007-08-03,5499,"TREGUIER OPTICIENS",NA,"OPTIQUE TASSEL - ERWAN CATHOU",NA,NA,NA,NA,NA,NA,NA,NA,NA,NA,NA,"47.78A",NA,NA,"2",2019,19,2021-10-27 08:38:22,"PME",2019,NA,"TREGUIER",NA,"YANNICK TASSEL OPTICIEN",NA,NA,"LA LUNETTERIE ERWAN CATHOU","14 PL DU MARTRAY 22220",NA,3789,NA,0,0,0,0,0,NA,0,"44105","https://www.lalunetterie.bzh/"
"197","590","61145","Domfront en Poiraie","Domfront en Poiraie",11,"28","Normandie","61","145","Domfront en Poiraie",4370,48.5824684934,-0.61398156582,499994572,18,4.99995e+13,2007-09-01,NA,2008-01-05 01:32:45,TRUE,2007-09-01,1000,NA,NA,NA,NA,NA,"F","LEFORESTIER",NA,"DEGE",NA,NA,NA,"DEGE",NA,"47.78A",NA,NA,NA,NA,18,2017-05-20 10:37:06,"PME",2019,NA,"DOMFRONT-EN-POIRAIE",NA,"ACTUAL OPTIQUE",NA,NA,NA,"19 RUE DU MARECHAL FOCH 61700",NA,6223,NA,0,0,0,0,0,NA,0,"44440",NA
"198","561","49180","Longué-Jumelles","Longué-Jumelles",11,"52","Pays de la Loire","49","180","Longué-Jumelles",6913,47.3984723864,-0.107579294015,348031436,36,3.48031e+13,1997-03-21,2019,2021-10-27 08:38:24,TRUE,1988-09-15,5499,"O.L.J.",NA,NA,NA,NA,NA,NA,NA,NA,NA,NA,NA,NA,NA,"47.78A",NA,"N","3",2019,36,2021-10-27 08:38:24,"PME",2019,NA,"LONGUE-JUMELLES",NA,NA,NA,NA,NA,"1 RUE DE L'AUMONERIE 49160",NA,7038,"optic 2000",1,0,1,1,1,NA,0,"44682","https://opticiens.optic2000.com/opticien-longue-jumelles-49160-318"
"199","544","44087","Machecoul-Saint-Même","Machecoul-Saint-Même",11,"52","Pays de la Loire","44","87","Machecoul-Saint-Même",7716,46.9910784513,-1.82345670327,437964091,15,4.37964e+13,2001-05-02,2019,2021-10-27 08:16:52,TRUE,2001-05-02,5499,"DEVINEAU",NA,"LA LUNETTERIE",NA,NA,NA,NA,NA,NA,NA,NA,NA,NA,NA,"47.78A",NA,NA,"1",2019,15,2021-10-27 08:16:52,"PME",2019,NA,"MACHECOUL-SAINT-MEME",NA,NA,NA,NA,NA,"13 PL DES HALLES 44270",NA,7716,"krys",1,0,1,0,1,NA,0,"43252","https://www.krys.com/opticien/france/loire-atlantique/opticien-machecoul-saint-meme/machecoul-halles#healthinsurance"
"200","544","44087","Machecoul-Saint-Même","Machecoul-Saint-Même",11,"52","Pays de la Loire","44","87","Machecoul-Saint-Même",7716,46.9910784513,-1.82345670327,444182687,202,4.44183e+13,2003-01-01,NA,2016-04-26 03:37:49,FALSE,2002-10-09,6220,"JULES VERNE",NA,NA,NA,NA,NA,NA,NA,NA,NA,NA,NA,NA,NA,"86.10Z",NA,NA,"42",2019,327,2021-10-27 08:25:08,"ETI",2019,NA,"MACHECOUL-SAINT-MEME",NA,"OPTICIEN MUTUALISTE",NA,NA,NA,"1 RUE DU MARCHE 44270",NA,7716,"ecouter voir",1,0,1,1,1,NA,1,"44287","https://www.ecoutervoir.fr/"
"201","547","62364","Fruges","Fruges",11,"32","Hauts-de-France","62","364","Fruges",2611,50.5130111281,2.1230697319,502364771,19,5.02365e+13,2008-03-01,2019,2021-10-27 08:05:20,FALSE,2008-03-01,5499,"GHL",NA,"KIAVUE OPTIQUE",NA,NA,NA,NA,NA,NA,NA,NA,NA,NA,NA,"47.78A",NA,NA,"1",2019,35,2021-10-27 08:05:20,"PME",2019,NA,"FRUGES",NA,"OPTIQUE GREGOIRE",NA,NA,"OPTIQUE GREGOIRE","32 B RUE DU FOUR 62310",NA,7887,NA,NA,NA,NA,NA,NA,NA,NA,NA,NA
"202","547","62364","Fruges","Fruges",11,"32","Hauts-de-France","62","364","Fruges",2611,50.5130111281,2.1230697319,502364771,35,5.02365e+13,2017-10-13,NA,2021-02-23 14:13:28,TRUE,2008-03-01,5499,"GHL",NA,"KIAVUE OPTIQUE",NA,NA,NA,NA,NA,NA,NA,NA,NA,NA,NA,"47.78A",NA,NA,"1",2019,35,2021-10-27 08:05:20,"PME",2019,NA,"FRUGES",NA,NA,NA,NA,NA,"32 PL DU GENERAL DE GAULLE 62310",NA,7887,NA,0,0,0,0,1,NA,1,"43556","https://www.optique-gregoire.fr/"
"203","544","44087","Machecoul-Saint-Même","Machecoul-Saint-Même",11,"52","Pays de la Loire","44","87","Machecoul-Saint-Même",7716,46.9910784513,-1.82345670327,490544459,12,4.90544e+13,2006-06-13,2019,2021-10-27 08:28:16,TRUE,2006-06-13,5499,"OPTIC PAB",NA,NA,NA,NA,NA,NA,NA,NA,NA,NA,NA,NA,NA,"47.78A",NA,NA,"2",2019,12,2021-10-27 08:28:16,"PME",2019,NA,"MACHECOUL-SAINT-MEME",NA,NA,NA,NA,NA,"15 PL DES HALLES 44270",NA,7716,"optic 2000",1,0,0,1,1,NA,0,"44682","https://opticiens.optic2000.com/opticien-machecoul-44270-1959"
"204","544","44087","Machecoul-Saint-Même","Machecoul-Saint-Même",11,"52","Pays de la Loire","44","87","Machecoul-Saint-Même",7716,46.9910784513,-1.82345670327,844881417,258,8.44881e+13,2019-06-01,2019,2021-10-27 09:46:22,FALSE,2018-11-09,8210,"VYV3 PAYS DE LA LOIRE POLE SERVICES ET BIENS MEDICAUX","VYV3 PDL-SBM",NA,NA,NA,NA,NA,NA,NA,NA,NA,NA,NA,NA,"65.12Z",NA,"O","41",2019,19,2022-03-08 17:17:32,"GE",2019,NA,"MACHECOUL-SAINT-MEME",NA,NA,NA,NA,NA,"1 RUE DU MARCHE 44270",NA,7716,NA,NA,NA,NA,NA,NA,NA,NA,NA,NA
